;Available since;Garden;Latitude;Link;Listing_status;Longitude;Neighbourhood;Number of bedrooms;Number of rooms;Price;Street;Surface (m²);Total volume (m³);Type;Year built;Zipcode
0;> 3 maanden;['No'];52.36247934;https://www.pararius.nl/appartement-te-koop/amsterdam/PB0002386844/vrijzicht;Beschikbaar;4.8095856;Osdorp-Oost;1;2;225000;Vrijzicht;73;190;Appartement;1966;1068CJ
1;24-05-2018;['No'];52.32609491;https://www.pararius.nl/appartement-te-koop/amsterdam/PB0002386708/brittenburg;Beschikbaar;4.87144897;Buitenveldert-West;2;3;325000;Brittenburg;67;216;Appartement;1963;1082BS
2;> 3 maanden;['No'];52.39252349;https://www.pararius.nl/opslagruimte-te-koop/amsterdam/PB0002276360/silodam;Beschikbaar;4.89040633;Houthavens;[];3;39000;Silodam;9999;216;Opslagruimte;2000;1013AW
3;18-05-2018;['No'];52.37538922;https://www.pararius.nl/appartement-te-koop/amsterdam/PB0002382427/van-oldenbarneveldtstraat;Beschikbaar;4.87476746;Frederik Hendrikbuurt;3;3;355000;Van Oldenbarneveldtstraat;50;173;Appartement;[];1052JT
4;18-05-2018;['No'];52.37356183;https://www.pararius.nl/appartement-te-koop/amsterdam/PB0002381685/pieter-van-der-doesstraat;Beschikbaar;4.85776893;De Krommert;1;2;225000;Pieter van der Doesstraat;50;140;Appartement;1933;1056VC
5;05-04-2018;['No'];52.37621172;https://www.pararius.nl/appartement-te-koop/amsterdam/PB0002348576/hoofdweg;Verkocht onder voorbehoud;4.84748672;Westindische buurt;2;3;450000;Hoofdweg;104;322;Appartement;2008;1055AB
6;11-05-2018;['Yes', 'achtertuin'];52.40675506;https://www.pararius.nl/woonhuis-te-koop/amsterdam/PB0002375337/annabellaweg;Bieding;4.9005076;Tuindorp Oostzaan;5;7;550000;Annabellaweg;152;539;Woonhuis;2012;1036KR
7;18-05-2018;['Yes', 'achtertuin'];52.36488512;https://www.pararius.nl/appartement-te-koop/amsterdam/PB0002382488/lampongstraat;Beschikbaar;4.93731601;Indische Buurt West;2;3;475000;Lampongstraat;85;311;Appartement;1914;1094AV
8;17-04-2018;['No'];52.34780469;https://www.pararius.nl/appartement-te-koop/amsterdam/PB0002356179/westlandgracht;Beschikbaar;4.84623245;Hoofddorppleinbuurt;[];2;375000;Westlandgracht;61;200;Appartement;1935;1059TR
9;22-05-2018;['No'];52.3181271;https://www.pararius.nl/appartement-te-koop/amsterdam/PB0002383290/boris-pasternakstraat;Beschikbaar;4.94345077;Bijlmer-Centrum (D, F, H);[];3;225000;Boris Pasternakstraat;71;210;Appartement;1984;1102TD
10;> 3 maanden;['No'];52.36103681;https://www.pararius.nl/appartement-te-koop/amsterdam/PB0002366523/semarangstraat;Beschikbaar;4.94404936;Indische Buurt Oost;2;3;250000;Semarangstraat;48;170;Appartement;1926;1095GE
11;21-03-2018;['No'];52.37638467;https://www.pararius.nl/appartement-te-koop/amsterdam/PB0002334686/veembroederhof;Verkocht onder voorbehoud;4.92443756;Oostelijk Havengebied;2;3;460000;Veembroederhof;85;220;Appartement;2004;1019HD
12;> 3 maanden;['No'];52.35527179;https://www.pararius.nl/appartement-te-koop/amsterdam/PB0002258965/gerard-doustraat;Verkocht onder voorbehoud;4.8888271;Oude Pijp;1;2;245000;Gerard Doustraat;37;120;Appartement;1877;1072VJ
13;17-04-2018;['No'];52.35200306;https://www.pararius.nl/appartement-te-koop/amsterdam/PB0002389018/dusartstraat;Verkocht onder voorbehoud;4.88949494;Nieuwe Pijp;1;2;450000;Dusartstraat;72;225;Appartement;[];1072HM
14;10-05-2018;['Yes', 'achtertuin'];52.36188647;https://www.pararius.nl/appartement-te-koop/amsterdam/PB0002374207/kanaalstraat;Bieding;4.86173997;Overtoomse Sluis;2;3;425000;Kanaalstraat;70;288;Appartement;1903;1054XM
15;> 3 maanden;['No'];52.35081754;https://www.pararius.nl/opslagruimte-te-koop/amsterdam/PB0002234083/max-de-haasstraat;Verkocht onder voorbehoud;5.0003795;IJburg Zuid;[];4;380000;Max de Haasstraat;100;355;Opslagruimte;2001;1087MD
16;> 3 maanden;['No'];52.35490512;https://www.pararius.nl/overig-te-koop/amsterdam/PB0002379564/langswater;Beschikbaar;4.79016157;De Punt;[];4;27500;Langswater;100;355;Overig;[];1069TS
17;13-04-2018;['No'];52.37747176;https://www.pararius.nl/appartement-te-koop/amsterdam/PB0002353840/esmoreitstraat;Verkocht onder voorbehoud;4.85183315;Erasmuspark;2;3;250000;Esmoreitstraat;53;146;Appartement;[];1055CE
18;17-05-2018;['No'];52.37603672;https://www.pararius.nl/appartement-te-koop/amsterdam/PB0002382409/bos-en-lommerplantsoen;Beschikbaar;4.84438084;De Kolenkit;1;1;185000;Bos en Lommerplantsoen;30;106;Appartement;1960;1055AA
19;06-03-2018;['No'];52.3692207;https://www.pararius.nl/appartement-te-koop/amsterdam/PB0002315596/rapenburgerstraat;Beschikbaar;4.90841942;Nieuwmarkt/Lastage;1;2;375000;Rapenburgerstraat;47;154;Appartement;1964;1011VK
20;15-05-2018;['Yes', 'achtertuin'];52.35537046;https://www.pararius.nl/appartement-te-koop/amsterdam/PB0002379164/govert-flinckstraat;Verkocht onder voorbehoud;4.89522591;Oude Pijp;1;2;375000;Govert Flinckstraat;52;232;Appartement;1886;1073CD
21;01-05-2018;['No'];52.36815465;https://www.pararius.nl/appartement-te-koop/amsterdam/PB0002366820/lijnbaansgracht;Beschikbaar;4.87906504;Jordaan;1;3;650000;Lijnbaansgracht;107;341;Appartement;[];1016XA
22;25-05-2018;['No'];52.35395932;https://www.pararius.nl/appartement-te-koop/amsterdam/PB0002386208/jacques-veltmanstraat;Beschikbaar;4.83221304;Slotervaart;2;3;245000;Jacques Veltmanstraat;58;198;Appartement;1956;1065EL
23;23-05-2018;['No'];52.35988236;https://www.pararius.nl/appartement-te-koop/amsterdam/PB0002384029/osdorper-ban;Beschikbaar;4.79154795;Osdorp-Midden;[];3;265000;Osdorper Ban;81;267;Appartement;2006;1069GA
24;> 3 maanden;['No'];52.31780996;https://www.pararius.nl/appartement-te-koop/amsterdam/PB0002375251/fleerde;Beschikbaar;4.95489361;Bijlmer-Centrum (D, F, H);3;4;250000;Fleerde;97;267;Appartement;1970;1102AV
25;> 3 maanden;['No'];52.38130201;https://www.pararius.nl/appartement-te-koop/amsterdam/PB0002365629/eerste-keucheniusstraat;Beschikbaar;4.87243729;Staatsliedenbuurt;1;2;240000;Eerste Keucheniusstraat;40;267;Appartement;1912;1051HR
26;> 3 maanden;['Yes', 'achtertuin. Lengte: 18. Breedte: 8. Orientatie: Zuid'];52.41941774;https://www.pararius.nl/woonhuis-te-koop/amsterdam/PB0002341176/stentorstraat;Beschikbaar;4.90202637;Kadoelen;4;5;598000;Stentorstraat;154;553;Woonhuis;2000;1035XC
27;18-04-2018;['No'];52.35701532;https://www.pararius.nl/appartement-te-koop/amsterdam/PB0002356870/erich-salomonstraat;Verkocht onder voorbehoud;4.9965089;IJburg West;2;3;350000;Erich Salomonstraat;108;336;Appartement;2010;1087EH
28;> 3 maanden;['No'];52.3452372;https://www.pararius.nl/appartement-te-koop/amsterdam/PB0002287165/kempenlaan;Beschikbaar;4.80702164;Sloten- en Riekerpolder;3;4;549500;Kempenlaan;170;253;Appartement;1993;1066PW
29;> 3 maanden;['No'];52.38254116;https://www.pararius.nl/opslagruimte-te-koop/amsterdam/PB0002329198/l-j-m-beelstraat;Verkocht onder voorbehoud;4.79166953;Eendracht;[];5;285000;L.J.M. Beelstraat;105;225;Opslagruimte;1990;1067WJ
30;03-04-2018;['No'];52.35572094;https://www.pararius.nl/appartement-te-koop/amsterdam/PB0002344491/ekingenstraat;Beschikbaar;4.79691759;Osdorp-Midden;3;4;249000;Ekingenstraat;83;257;Appartement;1962;1069GZ
31;> 3 maanden;['No'];52.3712405;https://www.pararius.nl/opslagruimte-te-koop/amsterdam/PB0001044310/borneolaan;Beschikbaar;4.93523986;Oostelijk Havengebied;[];4;40000;Borneolaan;83;257;Opslagruimte;2000;1019HW
32;> 3 maanden;['No'];52.37905561;https://www.pararius.nl/appartement-te-koop/amsterdam/PB0002318370/brouwersgracht;Beschikbaar;4.89367076;Haarlemmerbuurt;3;4;550000;Brouwersgracht;83;257;Appartement;1650;1013GW
33;04-04-2018;['No'];52.29852853;https://www.pararius.nl/appartement-te-koop/amsterdam/PB0002346327/wamelplein;Beschikbaar;4.98736215;Gein;[];3;185000;Wamelplein;78;200;Appartement;1983;1106DS
34;21-03-2018;['Yes', 'ja'];52.41707655;https://www.pararius.nl/woonhuis-te-koop/amsterdam/PB0002332831/stoombootweg;Beschikbaar;4.90094958;Kadoelen;3;5;895000;Stoombootweg;125;279;Woonhuis;1916;1035TW
35;30-04-2018;['No'];52.35019607;https://www.pararius.nl/appartement-te-koop/amsterdam/PB0002373107/pieter-calandlaan;Bieding;4.78849302;Osdorp-Oost;2;3;285000;Pieter Calandlaan;87;248;Appartement;1999;1060TX
36;11-05-2018;['No'];52.36886325;https://www.pararius.nl/appartement-te-koop/amsterdam/PB0002375400/balboaplein;Beschikbaar;4.85620986;Hoofdweg en omgeving;2;3;495000;Balboaplein;91;281;Appartement;2004;1057VS
37;> 3 maanden;['Yes', 'achtertuin. Lengte: 9. Breedte: 5,5. Orientatie: Zuid'];52.29215332;https://www.pararius.nl/woonhuis-te-koop/amsterdam/PB0001909021/wethouder-insingerstraat;Verkocht onder voorbehoud;4.9838723;Gein;2;3;209000;Wethouder Insingerstraat;70;218;Woonhuis;1985;1107XD
38;> 3 maanden;['No'];52.36024248;https://www.pararius.nl/appartement-te-koop/amsterdam/PB0002377073/osdorper-ban;Beschikbaar;4.78988423;Osdorp-Midden;2;3;275000;Osdorper Ban;80;235;Appartement;2006;1069ZR
39;> 3 maanden;['No'];52.37313742;https://www.pararius.nl/appartement-te-koop/amsterdam/PB0002286691/oudezijds-voorburgwal;Verkocht onder voorbehoud;4.89696722;Burgwallen-Oude Zijde;1;2;350000;Oudezijds Voorburgwal;48;155;Appartement;1890;1012GH
40;> 3 maanden;['No'];52.34101715;https://www.pararius.nl/appartement-te-koop/amsterdam/PB0002247320/kribbestraat;Verkocht onder voorbehoud;4.90398391;Rijnbuurt;2;3;324500;Kribbestraat;52;140;Appartement;[];1079WP
41;24-05-2018;['No'];52.35016019;https://www.pararius.nl/appartement-te-koop/amsterdam/PB0002385784/pieter-calandlaan;Beschikbaar;4.78850818;Osdorp-Oost;2;4;295000;Pieter Calandlaan;99;140;Appartement;1998;1060TV
42;09-05-2018;['No'];52.35053416;https://www.pararius.nl/appartement-te-koop/amsterdam/PB0002374046/jan-van-zutphenstraat;Bieding;4.8021823;Osdorp-Midden;2;3;325000;Jan van Zutphenstraat;70;222;Appartement;2008;1069RR
43;> 3 maanden;['No'];52.38431207;https://www.pararius.nl/appartement-te-koop/amsterdam/PB0002301453/van-hallstraat;Verkocht onder voorbehoud;4.87018441;Staatsliedenbuurt;2;3;475000;Van Hallstraat;94;227;Appartement;1906;1051GX
44;25-05-2018;['No'];52.35463535;https://www.pararius.nl/appartement-te-koop/amsterdam/PB0002389019/albert-cuypstraat;Beschikbaar;4.88923056;Oude Pijp;3;4;675000;Albert Cuypstraat;100;347;Appartement;[];1072CV
45;28-03-2018;['No'];52.36642068;https://www.pararius.nl/appartement-te-koop/amsterdam/PB0002341465/th-k-van-lohuizenlaan;Beschikbaar;4.94652094;Indische Buurt Oost;2;3;450000;Th. K. van Lohuizenlaan;106;320;Appartement;2001;1095DW
46;> 3 maanden;['No'];52.37647571;https://www.pararius.nl/opslagruimte-te-koop/amsterdam/PB0002003480/joos-banckersplantsoen;Beschikbaar;4.85617746;Erasmuspark;[];3;29500;Joos Banckersplantsoen;106;320;Opslagruimte;[];1056LD
47;18-05-2018;['Yes', 'achtertuin'];52.40203107;https://www.pararius.nl/woonhuis-te-koop/amsterdam/PB0002382421/buiksloterbreek;Beschikbaar;4.90752132;Buiksloterham;3;4;575000;Buiksloterbreek;130;413;Woonhuis;1993;1034XD
48;> 3 maanden;['No'];52.38508089;https://www.pararius.nl/appartement-te-koop/amsterdam/PB0002204727/de-wittenkade;Beschikbaar;4.87962019;Staatsliedenbuurt;[];2;289000;De Wittenkade;54;140;Appartement;1980;1051AA
49;16-05-2018;['No'];52.36978668;https://www.pararius.nl/appartement-te-koop/amsterdam/PB0002381269/jan-evertsenstraat;Beschikbaar;4.84972337;Hoofdweg en omgeving;2;3;275000;Jan Evertsenstraat;44;141;Appartement;[];1057BW
50;23-04-2018;['No'];52.37830558;https://www.pararius.nl/appartement-te-koop/amsterdam/PB0002373101/esmoreitstraat;Bieding;4.85138249;Erasmuspark;2;3;275000;Esmoreitstraat;55;178;Appartement;1940;1055CJ
51;> 3 maanden;['Yes', 'Orientatie: Zuid'];52.32746101;https://www.pararius.nl/woonhuis-te-koop/amsterdam/PB0001005531/van-nijenrodeweg;Verkocht onder voorbehoud;4.86937937;Buitenveldert-West;1;2;148000;Van Nijenrodeweg;35;90;Woonhuis;1965;1082JM
52;11-04-2018;['No'];52.37342464;https://www.pararius.nl/appartement-te-koop/amsterdam/PB0002351860/rietlandpark;Verkocht onder voorbehoud;4.93527634;Oostelijk Havengebied;2;3;375000;Rietlandpark;85;264;Appartement;[];1019DT
53;25-05-2018;['No'];52.36848539;https://www.pararius.nl/appartement-te-koop/amsterdam/PB0002385691/orteliusstraat;Beschikbaar;4.85015026;Erasmuspark;1;2;289000;Orteliusstraat;55;190;Appartement;1927;1057BH
54;> 3 maanden;['No'];52.35338117;https://www.pararius.nl/opslagruimte-te-koop/amsterdam/PB0002234003/tweede-schinkelstraat;Verkocht onder voorbehoud;4.8550594;Schinkelbuurt;[];4;495000;Tweede Schinkelstraat;90;296;Opslagruimte;1911;1075TN
55;> 3 maanden;['No'];52.36360269;https://www.pararius.nl/appartement-te-koop/amsterdam/PB0002246459/oeverpad;Beschikbaar;4.8077211;Osdorp-Oost;3;4;525000;Oeverpad;170;504;Appartement;2006;1068PM
56;28-03-2018;['No'];52.38067977;https://www.pararius.nl/appartement-te-koop/amsterdam/PB0002341212/goudsbloemstraat;Verkocht onder voorbehoud;4.88450262;Jordaan;3;4;925000;Goudsbloemstraat;134;448;Appartement;1934;1015JK
57;30-04-2018;['No'];52.36154234;https://www.pararius.nl/appartement-te-koop/amsterdam/PB0002365798/kanaalstraat;Beschikbaar;4.86115682;Overtoomse Sluis;1;2;315000;Kanaalstraat;48;155;Appartement;1906;1054XD
58;24-05-2018;['No'];52.34615247;https://www.pararius.nl/appartement-te-koop/amsterdam/PB0002385763/waverstraat;Beschikbaar;4.90922592;Rijnbuurt;1;2;300000;Waverstraat;47;170;Appartement;1924;1079VM
59;> 3 maanden;['No'];52.37189904;https://www.pararius.nl/appartement-te-koop/amsterdam/PB0002301016/herengracht;Beschikbaar;4.8866873;Grachtengordel-West;2;5;995000;Herengracht;158;474;Appartement;1750;1016BV
60;17-04-2018;['No'];52.29975486;https://www.pararius.nl/woonhuis-te-koop/amsterdam/PB0002357079/lambert-rimastraat;Beschikbaar;4.99935786;Gein;[];5;290000;Lambert Rimastraat;112;282;Woonhuis;1986;1106ZT
61;> 3 maanden;['No'];52.38196825;https://www.pararius.nl/woonhuis-te-koop/amsterdam/PB0002380082/brouwersgracht;Beschikbaar;4.88526646;Haarlemmerbuurt;1;2;285000;Brouwersgracht;39;65;Woonhuis;1927;1015GH
62;> 3 maanden;['No'];52.31375141;https://www.pararius.nl/woonhuis-te-koop/amsterdam/PB0001913222/1e-kekerstraat;Beschikbaar;4.98137389;Bijlmer-Oost (E, G, K);2;2;219000;1e Kekerstraat;90;250;Woonhuis;2008;1104VA
63;22-05-2018;['No'];52.38045106;https://www.pararius.nl/appartement-te-koop/amsterdam/PB0002384693/lucellestraat;Beschikbaar;4.84883039;Erasmuspark;3;4;275000;Lucellestraat;60;194;Appartement;1941;1055HS
64;12-04-2018;['No'];52.37572309;https://www.pararius.nl/appartement-te-koop/amsterdam/PB0002353744/leliegracht;Beschikbaar;4.8855721;Grachtengordel-West;2;3;525000;Leliegracht;60;225;Appartement;[];1015DH
65;> 3 maanden;['No'];52.35736146;https://www.pararius.nl/appartement-te-koop/amsterdam/PB0002373082/langswater;Verkocht onder voorbehoud;4.78891013;De Punt;3;4;185000;Langswater;72;227;Appartement;1966;1069EE
66;> 3 maanden;['No'];52.40294292;https://www.pararius.nl/appartement-te-koop/amsterdam/PB0002366524/amerbos;Verkocht onder voorbehoud;4.94555536;Buikslotermeer;3;4;250000;Amerbos;85;280;Appartement;1967;1025ZM
67;> 3 maanden;['No'];52.36521038;https://www.pararius.nl/opslagruimte-te-koop/amsterdam/PB0002325341/delistraat;Verkocht onder voorbehoud;4.93305495;Indische Buurt West;[];1;175000;Delistraat;27;92;Opslagruimte;1903;1094CW
68;16-03-2018;['No'];52.35681945;https://www.pararius.nl/appartement-te-koop/amsterdam/PB0002332220/eerste-oosterparkstraat;Beschikbaar;4.91109272;Weesperzijde;2;3;385000;Eerste Oosterparkstraat;74;187;Appartement;1983;1091GX
69;> 3 maanden;['No'];52.35649965;https://www.pararius.nl/appartement-te-koop/amsterdam/PB0002344936/langswater;Beschikbaar;4.78911258;De Punt;3;4;215000;Langswater;72;210;Appartement;1963;1069ED
70;06-03-2018;['No'];52.3692207;https://www.pararius.nl/appartement-te-koop/amsterdam/PB0002315588/rapenburgerstraat;Beschikbaar;4.90841942;Nieuwmarkt/Lastage;1;2;415000;Rapenburgerstraat;55;168;Appartement;1964;1011VK
71;> 3 maanden;['Yes'];52.35680572;https://www.pararius.nl/appartement-te-koop/amsterdam/PB0002385736/ijburglaan;Beschikbaar;4.99292904;IJburg West;2;3;425000;IJburglaan;104;168;Appartement;2006;1087CL
72;> 3 maanden;['No'];52.3729482;https://www.pararius.nl/appartement-te-koop/amsterdam/PB0002334406/geldersekade;Beschikbaar;4.90121314;Nieuwmarkt/Lastage;1;2;450000;Geldersekade;70;250;Appartement;1650;1011EN
73;> 3 maanden;['No'];52.37121904;https://www.pararius.nl/appartement-te-koop/amsterdam/PB0002319602/prinsengracht;Beschikbaar;4.88317082;Grachtengordel-West;1;2;295000;Prinsengracht;38;250;Appartement;1970;1016HM
74;> 3 maanden;['No'];52.37696148;https://www.pararius.nl/woonhuis-te-koop/amsterdam/PB0002302939/singel;Beschikbaar;4.89152056;Grachtengordel-West;5;10;2550000;Singel;336;1181;Woonhuis;[];1015AD
75;> 3 maanden;['No'];52.35161893;https://www.pararius.nl/appartement-te-koop/amsterdam/PB0002244057/h-gerhardstraat;Beschikbaar;4.80162494;Osdorp-Midden;[];2;299000;H. Gerhardstraat;59;180;Appartement;[];1069TD
76;> 3 maanden;['No'];52.36087268;https://www.pararius.nl/appartement-te-koop/amsterdam/PB0002376720/suze-robertsonstraat;Beschikbaar;4.83888698;Overtoomse Veld;1;2;250000;Suze Robertsonstraat;47;165;Appartement;[];1062BV
77;> 3 maanden;['No'];52.38432467;https://www.pararius.nl/opslagruimte-te-koop/amsterdam/PB0002349671/fritz-conijnstraat;Verkocht onder voorbehoud;4.83707674;Slotermeer-Noordoost;2;3;225000;Fritz Conijnstraat;57;210;Opslagruimte;1955;1063CC
78;05-04-2018;['No'];52.3810685;https://www.pararius.nl/appartement-te-koop/amsterdam/PB0002346528/granidastraat;Beschikbaar;4.8482354;Landlust;2;3;325000;Granidastraat;72;234;Appartement;1941;1055HP
79;> 3 maanden;['No'];52.40817484;https://www.pararius.nl/appartement-te-koop/amsterdam/PB0002350600/bramzeilhof;Beschikbaar;4.92235674;Banne Buiksloot;2;3;265000;Bramzeilhof;75;287;Appartement;1971;1034LL
80;15-03-2018;['Yes', 'achtertuin'];52.38778333;https://www.pararius.nl/appartement-te-koop/amsterdam/PB0002331183/van-der-pekstraat;Verkocht onder voorbehoud;4.90917379;Volewijck;1;2;269000;Van der Pekstraat;44;132;Appartement;1919;1031EB
81;> 3 maanden;['Yes', 'zonneterras'];52.35079297;https://www.pararius.nl/woonhuis-te-koop/amsterdam/PB0002243152/jan-vrijmanstraat;Beschikbaar;5.00111357;IJburg Zuid;4;5;659000;Jan Vrijmanstraat;150;420;Woonhuis;2007;1087MB
82;04-05-2018;['No'];52.37169658;https://www.pararius.nl/appartement-te-koop/amsterdam/PB0002370996/jacob-burggraafstraat;Bieding;4.92303274;Oostelijke Eilanden/Kadijken;1;2;470000;Jacob Burggraafstraat;112;450;Appartement;2004;1018WA
83;07-03-2018;['No'];52.37584454;https://www.pararius.nl/woonhuis-te-koop/amsterdam/PB0002372671/lijnbaansgracht;Verkocht onder voorbehoud;4.87822798;Jordaan;5;7;850000;Lijnbaansgracht;148;523;Woonhuis;1862;1015GX
84;> 3 maanden;['No'];52.34779587;https://www.pararius.nl/appartement-te-koop/amsterdam/PB0002307785/teslastraat;Beschikbaar;4.94111423;Betondorp;2;3;425000;Teslastraat;98;308;Appartement;1999;1098VM
85;25-04-2018;['No'];52.34888157;https://www.pararius.nl/appartement-te-koop/amsterdam/PB0002379188/vincent-van-goghstraat;Verkocht onder voorbehoud;4.89098292;Scheldebuurt;2;3;325000;Vincent van Goghstraat;55;137;Appartement;1906;1072DA
86;24-05-2018;['No'];52.37652146;https://www.pararius.nl/woonhuis-te-koop/amsterdam/PB0002386056/prinsengracht;Beschikbaar;4.88521062;Grachtengordel-West;2;3;489000;Prinsengracht;70;161;Woonhuis;1928;1015DT
87;> 3 maanden;['No'];52.36585963;https://www.pararius.nl/appartement-te-koop/amsterdam/PB0002316090/president-allendelaan;Beschikbaar;4.80792654;Osdorp-Oost;3;4;475000;President Allendelaan;129;435;Appartement;2006;1068VM
88;> 3 maanden;['No'];52.35055206;https://www.pararius.nl/appartement-te-koop/amsterdam/PB0002373074/jan-van-zutphenstraat;Verkocht onder voorbehoud;4.80216739;Osdorp-Midden;2;3;315000;Jan van Zutphenstraat;74;230;Appartement;2008;1069RR
89;04-05-2018;['Yes', 'achtertuin'];52.29104865;https://www.pararius.nl/woonhuis-te-koop/amsterdam/PB0002371011/wethouder-vospad;Verkocht onder voorbehoud;4.99210511;Gein;4;5;265000;Wethouder Vospad;100;290;Woonhuis;1986;1107DG
90;05-04-2018;['No'];52.34330585;https://www.pararius.nl/appartement-te-koop/amsterdam/PB0002348583/niersstraat;Verkocht onder voorbehoud;4.8944938;Scheldebuurt;2;3;589000;Niersstraat;97;260;Appartement;1930;1078VK
91;11-04-2018;['No'];52.36311447;https://www.pararius.nl/appartement-te-koop/amsterdam/PB0002351828/ijburglaan;Verkocht onder voorbehoud;4.97948374;IJburg West;2;3;325000;IJburglaan;84;259;Appartement;2007;1086XT
92;> 3 maanden;['No'];52.38092532;https://www.pararius.nl/appartement-te-koop/amsterdam/PB0002267216/willem-de-zwijgerlaan;Beschikbaar;4.86104223;De Krommert;1;1;174000;Willem de Zwijgerlaan;34;259;Appartement;1959;1055RD
93;07-03-2018;['No'];52.3789847;https://www.pararius.nl/appartement-te-koop/amsterdam/PB0002315690/karthuizersdwarsstraat;Beschikbaar;4.88112925;Jordaan;4;5;1100000;Karthuizersdwarsstraat;158;609;Appartement;[];1015KP
94;12-04-2018;['No'];52.35594723;https://www.pararius.nl/appartement-te-koop/amsterdam/PB0002352547/haarlemmermeerstraat;Verkocht onder voorbehoud;4.8500965;Hoofddorppleinbuurt;2;3;449000;Haarlemmermeerstraat;84;222;Appartement;1932;1058KC
95;> 3 maanden;['No'];52.36384148;https://www.pararius.nl/appartement-te-koop/amsterdam/PB0002351909/plantage-badlaan;Verkocht onder voorbehoud;4.91624398;Weesperbuurt/Plantage;2;4;695000;Plantage Badlaan;105;350;Appartement;[];1018TE
96;26-04-2018;['No'];52.34531034;https://www.pararius.nl/appartement-te-koop/amsterdam/PB0002364431/parnassusweg;Verkocht onder voorbehoud;4.86723402;Stadionbuurt;2;4;625000;Parnassusweg;102;285;Appartement;1931;1076AR
97;> 3 maanden;['No'];52.37313303;https://www.pararius.nl/appartement-te-koop/amsterdam/PB0002362565/geuzenstraat;Verkocht onder voorbehoud;4.86442619;De Krommert;1;3;215000;Geuzenstraat;48;166;Appartement;1934;1056KB
98;15-03-2018;['Yes', 'achtertuin'];52.38772923;https://www.pararius.nl/appartement-te-koop/amsterdam/PB0002331181/van-der-pekstraat;Verkocht onder voorbehoud;4.90913031;Volewijck;1;2;269000;Van der Pekstraat;44;132;Appartement;1919;1031EB
99;19-05-2018;['No'];52.35609068;https://www.pararius.nl/appartement-te-koop/amsterdam/PB0002382670/derde-oosterparkstraat;Beschikbaar;4.91615129;Oosterparkbuurt;3;4;649000;Derde Oosterparkstraat;104;249;Appartement;2014;1091KA
100;10-04-2018;['No'];52.35624366;https://www.pararius.nl/woonhuis-te-koop/amsterdam/PB0002352025/daniel-stalpertstraat;Beschikbaar;4.8912529;Oude Pijp;[];1;210000;Daniël Stalpertstraat;33;100;Woonhuis;1915;1072XC
101;> 3 maanden;['No'];52.35526395;https://www.pararius.nl/appartement-te-koop/amsterdam/PB0002125123/newtonstraat;Beschikbaar;4.93618054;Middenmeer;3;4;549500;Newtonstraat;109;100;Appartement;1929;1098GX
102;> 3 maanden;['No'];52.36925849;https://www.pararius.nl/opslagruimte-te-koop/amsterdam/PB0001044595/entrepothof;Beschikbaar;4.9363613;Oostelijk Havengebied;[];4;40000;Entrepothof;109;100;Opslagruimte;2000;1019DK
103;> 3 maanden;['No'];52.37125486;https://www.pararius.nl/opslagruimte-te-koop/amsterdam/PB0001044592/borneolaan;Beschikbaar;4.93664937;Oostelijk Havengebied;[];4;40000;Borneolaan;109;100;Opslagruimte;2000;1019HX
104;> 3 maanden;['No'];52.36778199;https://www.pararius.nl/appartement-te-koop/amsterdam/PB0002331940/chassestraat;Verkocht onder voorbehoud;4.86164077;De Krommert;2;3;375000;Chassestraat;68;250;Appartement;[];1057HW
105;08-05-2018;['No'];52.38178177;https://www.pararius.nl/appartement-te-koop/amsterdam/PB0002375308/de-kempenaerstraat;Verkocht onder voorbehoud;4.86909766;Staatsliedenbuurt;1;2;235000;De Kempenaerstraat;37;122;Appartement;1908;1051CN
106;> 3 maanden;['Yes', 'Op het Oosten'];52.32448781;https://www.pararius.nl/woonhuis-te-koop/amsterdam/PB0002358193/emanzana;Beschikbaar;4.9648325;Bijlmer-Oost (E, G, K);3;6;324500;Emanzana;131;122;Woonhuis;2008;1103AV
107;> 3 maanden;['Yes'];52.41470974;https://www.pararius.nl/woonhuis-te-koop/amsterdam/PB0002354924/marsstraat;Beschikbaar;4.88301414;Tuindorp Oostzaan;2;3;250000;Marsstraat;58;122;Woonhuis;1923;1033VP
108;> 3 maanden;['No'];52.36273088;https://www.pararius.nl/appartement-te-koop/amsterdam/PB0002368651/kerkstraat;Verkocht onder voorbehoud;4.89294212;Grachtengordel-Zuid;[];3;550000;Kerkstraat;91;360;Appartement;[];1017HA
109;> 3 maanden;['No'];52.37984652;https://www.pararius.nl/appartement-te-koop/amsterdam/PB0001974222/binnen-wieringerstraat;Verkocht onder voorbehoud;4.89281506;Haarlemmerbuurt;3;5;795000;Binnen Wieringerstraat;158;373;Appartement;1737;1013EA
110;06-04-2018;['No'];52.32449368;https://www.pararius.nl/appartement-te-koop/amsterdam/PB0002348305/groenhoven;Verkocht onder voorbehoud;4.97671388;Bijlmer-Oost (E, G, K);1;2;169000;Groenhoven;52;144;Appartement;1976;1103LD
111;> 3 maanden;['No'];52.32507566;https://www.pararius.nl/appartement-te-koop/amsterdam/PB0001880035/chestertonlaan;Beschikbaar;4.9461244;Bijlmer-Centrum (D, F, H);1;2;100000;Chestertonlaan;43;106;Appartement;1984;1102ZA
112;> 3 maanden;['No'];52.38326145;https://www.pararius.nl/appartement-te-koop/amsterdam/PB0002252348/sara-burgerhartstraat;Verkocht onder voorbehoud;4.84822344;Landlust;2;3;315000;Sara Burgerhartstraat;75;235;Appartement;1950;1055LB
113;> 3 maanden;['No'];52.37777739;https://www.pararius.nl/appartement-te-koop/amsterdam/PB0001755154/hekelveld;Beschikbaar;4.8953592;Burgwallen-Nieuwe Zijde;2;3;750000;Hekelveld;106;275;Appartement;1850;1012SN
114;> 3 maanden;['No'];52.35719037;https://www.pararius.nl/appartement-te-koop/amsterdam/PB0002376706/beukenplein;Beschikbaar;4.91845775;Oosterparkbuurt;1;2;280000;Beukenplein;44;150;Appartement;[];1092BA
115;> 3 maanden;['No'];52.35457466;https://www.pararius.nl/appartement-te-koop/amsterdam/PB0001277800/lederambachtstraat;Beschikbaar;4.79594937;Osdorp-Midden;1;2;197500;Lederambachtstraat;70;191;Appartement;2004;1069HM
116;19-04-2018;['No'];52.32408381;https://www.pararius.nl/appartement-te-koop/amsterdam/PB0002357876/dickenslaan;Verkocht onder voorbehoud;4.94526881;Bijlmer-Centrum (D, F, H);2;3;200000;Dickenslaan;73;219;Appartement;1983;1102ZW
117;> 3 maanden;['Yes', 'ja'];52.36898328;https://www.pararius.nl/appartement-te-koop/amsterdam/PB0002345941/orteliuskade;Verkocht onder voorbehoud;4.84895489;Overtoomse Veld;2;3;325000;Orteliuskade;58;190;Appartement;[];1057AM
118;25-05-2018;['No'];52.37150021;https://www.pararius.nl/appartement-te-koop/amsterdam/PB0002386781/kloveniersburgwal;Beschikbaar;4.89879145;Nieuwmarkt/Lastage;3;4;665000;Kloveniersburgwal;106;355;Appartement;[];1012CW
119;> 3 maanden;"['Yes', 'achtertuin;voortuin']";52.35396206;https://www.pararius.nl/woonhuis-te-koop/amsterdam/PB0002091573/m-gandhilaan;Beschikbaar;4.77969391;Middelveldsche Akerpolder en Sloten;4;5;342500;M. Gandhilaan;109;270;Woonhuis;1989;1069NC
120;> 3 maanden;['No'];52.37669788;https://www.pararius.nl/appartement-te-koop/amsterdam/PB0002320817/knsm-laan;Verkocht onder voorbehoud;4.93809202;Oostelijk Havengebied;[];4;625000;KNSM-laan;123;375;Appartement;2000;1019LL
121;09-05-2018;['No'];52.37799474;https://www.pararius.nl/woonhuis-te-koop/amsterdam/PB0002380103/singel;Beschikbaar;4.89359445;Grachtengordel-West;1;2;449000;Singel;64;137;Woonhuis;1961;1012VC
122;25-05-2018;['No'];52.35448997;https://www.pararius.nl/appartement-te-koop/amsterdam/PB0002385975/smitstraat;Beschikbaar;4.92197973;Transvaalbuurt;[];3;375000;Smitstraat;72;210;Appartement;1912;1092XS
123;12-04-2018;['No'];52.34500638;https://www.pararius.nl/appartement-te-koop/amsterdam/PB0002374140/biesboschstraat;Verkocht onder voorbehoud;4.89710181;Scheldebuurt;2;4;495000;Biesboschstraat;86;305;Appartement;1930;1078MN
124;03-05-2018;['No'];52.40177046;https://www.pararius.nl/appartement-te-koop/amsterdam/PB0002371010/elpermeer;Verkocht onder voorbehoud;4.94929932;Buikslotermeer;3;4;249112;Elpermeer;86;268;Appartement;1966;1025AL
125;> 3 maanden;['No'];52.3731104;https://www.pararius.nl/woonhuis-te-koop/amsterdam/PB0002322489/panamakade;Verkocht onder voorbehoud;4.94488324;Oostelijk Havengebied;[];5;900000;Panamakade;165;547;Woonhuis;1999;1019AX
126;> 3 maanden;['No'];52.31991079;https://www.pararius.nl/opslagruimte-te-koop/amsterdam/PB0002329182/bijlmerdreef;Verkocht onder voorbehoud;4.96672405;Bijlmer-Oost (E, G, K);[];5;199000;Bijlmerdreef;100;280;Opslagruimte;2000;1103TB
127;23-05-2018;"['Yes', 'achtertuin;patio/atrium']";52.35791816;https://www.pararius.nl/appartement-te-koop/amsterdam/PB0002385088/stadhouderskade;Beschikbaar;4.90058506;Oude Pijp;4;7;1400000;Stadhouderskade;217;583;Appartement;[];1074AX
128;12-05-2018;['No'];52.35152975;https://www.pararius.nl/appartement-te-koop/amsterdam/PB0002375612/van-der-helstplein;Beschikbaar;4.89451993;Diamantbuurt;2;3;395000;Van der Helstplein;64;205;Appartement;1917;1072PH
129;01-05-2018;['No'];52.39034415;https://www.pararius.nl/appartement-te-koop/amsterdam/PB0002366836/nova-zemblastraat;Beschikbaar;4.88089675;Spaarndammer- en Zeeheldenbuurt;1;2;265000;Nova Zemblastraat;51;167;Appartement;1981;1013RJ
130;> 3 maanden;['No'];52.38757769;https://www.pararius.nl/appartement-te-koop/amsterdam/PB0002280980/oleanderstraat;Verkocht onder voorbehoud;4.90944042;Volewijck;3;4;475000;Oleanderstraat;92;279;Appartement;1919;1031GP
131;19-04-2018;['No'];52.37079432;https://www.pararius.nl/appartement-te-koop/amsterdam/PB0002357913/nieuwe-hoogstraat;Beschikbaar;4.89979773;Nieuwmarkt/Lastage;2;3;525000;Nieuwe Hoogstraat;88;215;Appartement;1890;1011HC
132;07-05-2018;['No'];52.33191468;https://www.pararius.nl/appartement-te-koop/amsterdam/PB0002372082/havikshorst;Beschikbaar;4.8850694;Buitenveldert-Oost;2;3;325000;Havikshorst;78;243;Appartement;1965;1083TP
133;> 3 maanden;['No'];52.37320673;https://www.pararius.nl/appartement-te-koop/amsterdam/PB0002377393/raadhuisstraat;Beschikbaar;4.88774452;Grachtengordel-West;1;2;275000;Raadhuisstraat;40;125;Appartement;1906;1016DB
134;> 3 maanden;['No'];52.34908665;https://www.pararius.nl/woonhuis-te-koop/amsterdam/PB0002252234/eva-besnyostraat;Verkocht onder voorbehoud;5.0098903;IJburg Zuid;3;4;425000;Eva Besnyostraat;117;403;Woonhuis;2010;1087LM
135;18-05-2018;['No'];52.38053216;https://www.pararius.nl/woonhuis-te-koop/amsterdam/PB0002382415/brouwersgracht;Beschikbaar;4.88785295;Haarlemmerbuurt;2;3;519000;Brouwersgracht;73;157;Woonhuis;1910;1015GD
136;> 3 maanden;['No'];52.37117057;https://www.pararius.nl/appartement-te-koop/amsterdam/PB0002370851/singel;Beschikbaar;4.88870722;Grachtengordel-West;[];2;445000;Singel;62;249;Appartement;1750;1012WG
137;07-04-2018;['No'];52.35536671;https://www.pararius.nl/woonhuis-te-koop/amsterdam/PB0002368093/maria-austriastraat;Verkocht onder voorbehoud;4.99806466;IJburg West;[];7;539000;Maria Austriastraat;146;470;Woonhuis;2005;1087GX
138;> 3 maanden;['No'];52.39276794;https://www.pararius.nl/appartement-te-koop/amsterdam/PB0002383750/spaarndammerdijk;Beschikbaar;4.8718928;Spaarndammer- en Zeeheldenbuurt;1;2;270000;Spaarndammerdijk;46;150;Appartement;1919;1013ZW
139;> 3 maanden;['No'];52.37215074;https://www.pararius.nl/appartement-te-koop/amsterdam/PB0002385579/admiralengracht;Beschikbaar;4.85575934;Hoofdweg en omgeving;2;3;325000;Admiralengracht;62;185;Appartement;[];1056DZ
140;16-04-2018;['Yes', 'zonneterras'];52.36122796;https://www.pararius.nl/appartement-te-koop/amsterdam/PB0002354761/vossiusstraat;Beschikbaar;4.88183093;Museumkwartier;2;3;995000;Vossiusstraat;95;327;Appartement;[];1071AB
141;20-04-2018;['No'];52.34799508;https://www.pararius.nl/appartement-te-koop/amsterdam/PB0002358743/amstelkade;Verkocht onder voorbehoud;4.88962794;IJselbuurt;2;3;625000;Amstelkade;126;424;Appartement;1928;1078AX
142;> 3 maanden;['No'];52.36250733;https://www.pararius.nl/woonhuis-te-koop/amsterdam/PB0002324734/ijburglaan;Beschikbaar;4.98327701;IJburg West;[];4;650000;IJburglaan;152;519;Woonhuis;2010;1086ZJ
143;03-04-2018;['Yes'];52.36273589;https://www.pararius.nl/woonhuis-te-koop/amsterdam/PB0002344967/reimerswaalstraat;Beschikbaar;4.79384813;Osdorp-Midden;5;6;475000;Reimerswaalstraat;130;519;Woonhuis;2014;1069AL
144;04-05-2018;['No'];52.34599347;https://www.pararius.nl/appartement-te-koop/amsterdam/PB0002371062/merwedeplein;Beschikbaar;4.90108267;Scheldebuurt;3;4;635000;Merwedeplein;111;294;Appartement;1928;1078NE
145;10-04-2018;['No'];52.34138292;https://www.pararius.nl/appartement-te-koop/amsterdam/PB0002353843/middenweg;Verkocht onder voorbehoud;4.94948417;Frankendael;2;3;350000;Middenweg;79;300;Appartement;1925;1097VD
146;16-04-2018;['No'];52.31043226;https://www.pararius.nl/appartement-te-koop/amsterdam/PB0002356263/leksmondhof;Beschikbaar;4.98322251;Nellestein;[];4;250000;Leksmondhof;78;200;Appartement;[];1108ET
147;> 3 maanden;['Yes', 'ja'];52.38935218;https://www.pararius.nl/woonhuis-te-koop/amsterdam/PB0002279947/scharwouderstraat;Beschikbaar;4.94758574;Tuindorp Nieuwendam;2;4;300000;Scharwouderstraat;62;230;Woonhuis;[];1023CW
148;> 3 maanden;['No'];52.35703793;https://www.pararius.nl/appartement-te-koop/amsterdam/PB0001183403/ijburglaan;Beschikbaar;4.9924866;IJburg West;[];3;280000;IJburglaan;90;252;Appartement;2006;1087CL
149;18-04-2018;['No'];52.37680919;https://www.pararius.nl/appartement-te-koop/amsterdam/PB0002356906/bos-en-lommerplantsoen;Bieding;4.84447657;De Kolenkit;1;1;170000;Bos en Lommerplantsoen;32;109;Appartement;[];1055AA
150;> 3 maanden;['No'];52.36999451;https://www.pararius.nl/appartement-te-koop/amsterdam/PB0002362623/zandstraat;Beschikbaar;4.8998212;Nieuwmarkt/Lastage;2;3;445000;Zandstraat;68;207;Appartement;1932;1011HL
151;04-04-2018;['No'];52.37616692;https://www.pararius.nl/appartement-te-koop/amsterdam/PB0002346217/hoofdweg;Verkocht onder voorbehoud;4.84751663;Westindische buurt;2;3;425000;Hoofdweg;85;210;Appartement;2008;1055AB
152;19-04-2018;['Yes', 'zonneterras'];52.37846886;https://www.pararius.nl/appartement-te-koop/amsterdam/PB0002358901/rombout-hogerbeetsstraat;Verkocht onder voorbehoud;4.87404162;Frederik Hendrikbuurt;3;4;595000;Rombout Hogerbeetsstraat;97;236;Appartement;[];1052XA
153;> 3 maanden;['No'];52.38426646;https://www.pararius.nl/opslagruimte-te-koop/amsterdam/PB0002333609/van-der-hoopstraat;Verkocht onder voorbehoud;4.87209442;Staatsliedenbuurt;1;2;250000;Van der Hoopstraat;39;125;Opslagruimte;1905;1051VD
154;30-03-2018;['Yes', 'achtertuin'];52.35222357;https://www.pararius.nl/woonhuis-te-koop/amsterdam/PB0002342113/valeriusplein;Beschikbaar;4.86352764;Willemspark;5;8;5900000;Valeriusplein;435;1500;Woonhuis;1910;1075BH
155;17-05-2018;['No'];52.367503;https://www.pararius.nl/appartement-te-koop/amsterdam/PB0002382425/bellamydwarsstraat;Beschikbaar;4.8642246;Kinkerbuurt;1;2;350000;Bellamydwarsstraat;49;154;Appartement;1933;1053BD
156;> 3 maanden;['Yes', 'ja'];52.33897795;https://www.pararius.nl/appartement-te-koop/amsterdam/PB0002383189/welnastraat;Beschikbaar;4.92052106;De Omval;[];1;194000;Welnastraat;28;96;Appartement;2015;1096GJ
157;> 3 maanden;['No'];52.35243307;https://www.pararius.nl/appartement-te-koop/amsterdam/PB0002381799/westlandgracht;Beschikbaar;4.84616135;Hoofddorppleinbuurt;2;3;375000;Westlandgracht;60;200;Appartement;1933;1058TS
158;> 3 maanden;['Yes', 'ja'];52.41953734;https://www.pararius.nl/woonhuis-te-koop/amsterdam/PB0002268799/stentorstraat;Beschikbaar;4.90270126;Kadoelen;3;4;425000;Stentorstraat;91;350;Woonhuis;1956;1035XJ
159;> 3 maanden;['Yes'];52.29595792;https://www.pararius.nl/woonhuis-te-koop/amsterdam/PB0001868794/wethouder-steinmetzstraat;Beschikbaar;4.99538908;Gein;6;7;305000;Wethouder Steinmetzstraat;136;386;Woonhuis;1987;1107BV
160;> 3 maanden;['Yes', 'Balkon . Lengte: 4. Breedte: 3 . Orientatie: Oost'];52.35718653;https://www.pararius.nl/woonhuis-te-koop/amsterdam/PB0002036250/andreasplein;Verkocht onder voorbehoud;4.84592725;Westlandgracht;4;5;775000;Andreasplein;134;355;Woonhuis;2010;1058GD
161;> 3 maanden;['No'];52.34930487;https://www.pararius.nl/appartement-te-koop/amsterdam/PB0002283629/ben-van-meerendonkstraat;Verkocht onder voorbehoud;5.01188879;IJburg Zuid;2;3;340000;Ben van Meerendonkstraat;99;314;Appartement;2010;1087LN
162;06-03-2018;['No'];52.3692207;https://www.pararius.nl/appartement-te-koop/amsterdam/PB0002315590/rapenburgerstraat;Beschikbaar;4.90841942;Nieuwmarkt/Lastage;2;3;600000;Rapenburgerstraat;77;255;Appartement;1964;1011VK
163;> 3 maanden;['No'];52.37480296;https://www.pararius.nl/appartement-te-koop/amsterdam/PB0001497209/slotermeerlaan;Beschikbaar;4.81916141;Slotermeer-Zuidwest;4;5;389500;Slotermeerlaan;142;420;Appartement;2000;1064HB
164;> 3 maanden;['No'];52.35067742;https://www.pararius.nl/appartement-te-koop/amsterdam/PB0002384345/lutmastraat;Beschikbaar;4.8927241;Diamantbuurt;2;3;450000;Lutmastraat;76;245;Appartement;1922;1072JL
165;21-03-2018;['Yes'];52.38039497;https://www.pararius.nl/woonhuis-te-koop/amsterdam/PB0002318197/nannie-van-wehlstraat;Beschikbaar;4.8102041;Slotermeer-Zuidwest;3;4;325000;Nannie van Wehlstraat;101;353;Woonhuis;1989;1064MN
166;09-04-2018;['No'];52.36171222;https://www.pararius.nl/appartement-te-koop/amsterdam/PB0002349953/sarphatistraat;Beschikbaar;4.90971895;Weesperbuurt/Plantage;5;8;1290000;Sarphatistraat;208;707;Appartement;[];1018GA
167;14-05-2018;['No'];52.37487126;https://www.pararius.nl/woonhuis-te-koop/amsterdam/PB0002379119/lijnbaansgracht;Beschikbaar;4.87762237;Jordaan;5;7;1550000;Lijnbaansgracht;208;646;Woonhuis;1858;1015GZ
168;27-03-2018;['No'];52.35109969;https://www.pararius.nl/appartement-te-koop/amsterdam/PB0002341456/pieter-calandlaan;Beschikbaar;4.79661212;Osdorp-Oost;2;3;275000;Pieter Calandlaan;87;290;Appartement;2006;1069SE
169;11-05-2018;['No'];52.38472335;https://www.pararius.nl/appartement-te-koop/amsterdam/PB0002375390/de-wittenkade;Verkocht onder voorbehoud;4.88007963;Staatsliedenbuurt;1;2;229000;De Wittenkade;32;81;Appartement;1884;1052AA
170;16-04-2018;"['Yes', 'achtertuin;voortuin']";52.29304569;https://www.pararius.nl/woonhuis-te-koop/amsterdam/PB0002357814/wethouder-vospad;Beschikbaar;4.99262971;Gein;3;5;285000;Wethouder Vospad;83;335;Woonhuis;1986;1107DG
171;08-05-2018;['Yes'];52.37170822;https://www.pararius.nl/woonhuis-te-koop/amsterdam/PB0002372760/pieter-jacobszstraat;Beschikbaar;4.89476572;Burgwallen-Oude Zijde;5;6;1180000;Pieter Jacobszstraat;168;500;Woonhuis;1899;1012HL
172;> 3 maanden;['No'];52.38534964;https://www.pararius.nl/appartement-te-koop/amsterdam/PB0002222754/haarlemmerweg;Beschikbaar;4.8752399;Centrale Markt;1;1;215000;Haarlemmerweg;33;87;Appartement;1983;1051KS
173;> 3 maanden;['No'];52.41421451;https://www.pararius.nl/woonhuis-te-koop/amsterdam/PB0002349800/plejadenplein;Verkocht onder voorbehoud;4.88491585;Tuindorp Oostzaan;3;4;325000;Plejadenplein;82;206;Woonhuis;1923;1033VK
174;> 3 maanden;['No'];52.37598625;https://www.pararius.nl/appartement-te-koop/amsterdam/PB0002349666/marnixstraat;Verkocht onder voorbehoud;4.87774173;Jordaan;1;1;189000;Marnixstraat;24;80;Appartement;1906;1015WE
175;> 3 maanden;['No'];52.35912585;https://www.pararius.nl/appartement-te-koop/amsterdam/PB0002284494/sumatrastraat;Verkocht onder voorbehoud;4.94017826;Indische Buurt West;2;3;395000;Sumatrastraat;73;230;Appartement;2009;1094NB
176;23-05-2018;['Yes', 'patio/atrium'];52.34815853;https://www.pararius.nl/woonhuis-te-koop/amsterdam/PB0002386073/bachplein;Beschikbaar;4.87944073;Apollobuurt;4;7;2300000;Bachplein;248;931;Woonhuis;1927;1077GH
177;> 3 maanden;['No'];52.37727515;https://www.pararius.nl/appartement-te-koop/amsterdam/PB0002308275/egelantiersstraat;Beschikbaar;4.88490837;Jordaan;1;2;1400000;Egelantiersstraat;183;673;Appartement;1955;1015PL
178;21-05-2018;['No'];52.34416154;https://www.pararius.nl/appartement-te-koop/amsterdam/PB0002383357/cornelis-dopperkade;Beschikbaar;4.87586172;Station-Zuid WTC en omgeving;3;4;725000;Cornelis Dopperkade;136;428;Appartement;1955;1077KN
179;> 3 maanden;['Yes'];52.31984085;https://www.pararius.nl/woonhuis-te-koop/amsterdam/PB0001958837/chico-mendesstraat;Beschikbaar;4.95480051;Bijlmer-Centrum (D, F, H);3;5;352000;Chico Mendesstraat;145;428;Woonhuis;2000;1102JG
180;04-05-2018;['No'];52.35447336;https://www.pararius.nl/appartement-te-koop/amsterdam/PB0002370682/valeriusstraat;Beschikbaar;4.87031189;Willemspark;3;5;1250000;Valeriusstraat;128;659;Appartement;1902;1071MD
181;04-04-2018;['No'];52.37885363;https://www.pararius.nl/appartement-te-koop/amsterdam/PB0002346242/jan-den-haenstraat;Bieding;4.8613627;Landlust;1;2;275000;Jan den Haenstraat;51;140;Appartement;1935;1055WG
182;28-04-2018;['No'];52.37702346;https://www.pararius.nl/appartement-te-koop/amsterdam/PB0002364902/esmoreitstraat;Verkocht onder voorbehoud;4.85207353;Erasmuspark;2;3;275000;Esmoreitstraat;52;168;Appartement;1940;1055CD
183;07-05-2018;['No'];52.35238842;https://www.pararius.nl/appartement-te-koop/amsterdam/PB0002373343/johan-hofmanstraat;Beschikbaar;4.79550881;Osdorp-Midden;3;4;300000;Johan Hofmanstraat;101;260;Appartement;2009;1069KD
184;26-04-2018;['No'];52.3630966;https://www.pararius.nl/appartement-te-koop/amsterdam/PB0002363997/ijburglaan;Verkocht onder voorbehoud;4.97951326;IJburg West;2;3;335000;IJburglaan;85;221;Appartement;2005;1086XT
185;19-04-2018;['No'];52.35247601;https://www.pararius.nl/appartement-te-koop/amsterdam/PB0002358911/warmondstraat;Verkocht onder voorbehoud;4.84966882;Hoofddorppleinbuurt;2;4;425000;Warmondstraat;70;227;Appartement;[];1058KX
186;> 3 maanden;['Yes', 'Gemeenschappelijk'];52.38562796;https://www.pararius.nl/woonhuis-te-koop/amsterdam/PB0002279450/ceramiquelaan;Beschikbaar;4.90141307;Buiksloterham;2;3;911000;Céramiquelaan;113;316;Woonhuis;2011;1031KG
187;> 3 maanden;['No'];52.35710604;https://www.pararius.nl/appartement-te-koop/amsterdam/PB0002321466/eikenweg;Verkocht onder voorbehoud;4.92214313;Oosterparkbuurt;1;2;395000;Eikenweg;49;155;Appartement;2012;1092CB
188;> 3 maanden;['No'];52.35948114;https://www.pararius.nl/opslagruimte-te-koop/amsterdam/PB0002254281/johan-jongkindstraat;Verkocht onder voorbehoud;4.83484512;Overtoomse Veld;[];3;275000;Johan Jongkindstraat;88;292;Opslagruimte;1998;1062DK
189;11-04-2018;['No'];52.3524965;https://www.pararius.nl/appartement-te-koop/amsterdam/PB0002352543/pieter-aertszstraat;Verkocht onder voorbehoud;4.90227373;Diamantbuurt;2;3;625000;Pieter Aertszstraat;92;295;Appartement;1908;1073ST
190;22-05-2018;"['Yes', 'achtertuin;voortuin']";52.38023387;https://www.pararius.nl/appartement-te-koop/amsterdam/PB0002385019/van-der-palmkade;Beschikbaar;4.87275811;Staatsliedenbuurt;2;3;500000;Van der Palmkade;80;289;Appartement;2001;1051RK
191;> 3 maanden;['No'];52.35426074;https://www.pararius.nl/opslagruimte-te-koop/amsterdam/PB0002329111/simon-stevinstraat;Verkocht onder voorbehoud;4.92772135;Frankendael;[];2;535000;Simon Stevinstraat;144;315;Opslagruimte;1906;1097BZ
192;14-03-2018;['No'];52.36126921;https://www.pararius.nl/appartement-te-koop/amsterdam/PB0002330514/wilhelminastraat;Verkocht onder voorbehoud;4.86239323;Helmersbuurt;2;3;699000;Wilhelminastraat;106;321;Appartement;[];1054WB
193;25-05-2018;['No'];52.36424044;https://www.pararius.nl/appartement-te-koop/amsterdam/PB0002387086/makassarstraat;Beschikbaar;4.94033228;Indische Buurt Oost;3;4;495000;Makassarstraat;93;282;Appartement;[];1095TA
194;07-05-2018;['No'];52.35054904;https://www.pararius.nl/appartement-te-koop/amsterdam/PB0002372437/maassluisstraat;Beschikbaar;4.83522047;Westlandgracht;2;3;295000;Maassluisstraat;82;260;Appartement;1960;1062GD
195;> 3 maanden;['No'];52.36170809;https://www.pararius.nl/woonhuis-te-koop/amsterdam/PB0001468388/ruimzicht;Beschikbaar;4.8099333;Osdorp-Oost;[];2;197500;Ruimzicht;56;167;Woonhuis;1966;1068DA
196;> 3 maanden;['No'];52.35111669;https://www.pararius.nl/appartement-te-koop/amsterdam/PB0002270595/hofmeyrstraat;Beschikbaar;4.91670191;Transvaalbuurt;1;2;239000;Hofmeyrstraat;44;109;Appartement;1927;1091NA
197;> 3 maanden;['No'];52.37471731;https://www.pararius.nl/appartement-te-koop/amsterdam/PB0002286685/singel;Verkocht onder voorbehoud;4.89003307;Grachtengordel-West;1;2;495000;Singel;66;185;Appartement;1634;1012VK
198;> 3 maanden;['No'];52.38359949;https://www.pararius.nl/appartement-te-koop/amsterdam/PB0002272171/sara-burgerhartstraat;Verkocht onder voorbehoud;4.84745555;Landlust;2;3;310000;Sara Burgerhartstraat;75;224;Appartement;1950;1055LD
199;> 3 maanden;['No'];52.35769004;https://www.pararius.nl/appartement-te-koop/amsterdam/PB0002385865/nicolaas-anslijnstraat;Beschikbaar;4.80798915;Osdorp-Oost;2;3;239500;Nicolaas Anslijnstraat;81;200;Appartement;1964;1068WP
200;26-04-2018;['Yes', 'achtertuin'];52.37531808;https://www.pararius.nl/appartement-te-koop/amsterdam/PB0002364901/admiraal-de-ruijterweg;Verkocht onder voorbehoud;4.85858504;Landlust;4;5;815000;Admiraal De Ruijterweg;148;519;Appartement;1911;1056GZ
201;> 3 maanden;['No'];52.35476604;https://www.pararius.nl/appartement-te-koop/amsterdam/PB0002278929/frans-van-mierisstraat;Verkocht onder voorbehoud;4.88400354;Duivelseiland;2;5;949000;Frans van Mierisstraat;152;585;Appartement;[];1071RJ
202;01-05-2018;['No'];52.3573426;https://www.pararius.nl/woonhuis-te-koop/amsterdam/PB0002368577/waldenlaan;Verkocht onder voorbehoud;4.92813525;Dapperbuurt;[];3;375000;Waldenlaan;74;192;Woonhuis;2013;1093NH
203;01-06-2018;['No'];52.34705825;https://www.pararius.nl/appartement-te-koop/amsterdam/PB0002380114/stadionweg;Beschikbaar;4.87647409;Stadionbuurt;3;4;769000;Stadionweg;94;192;Appartement;1939;1077ST
204;> 3 maanden;['Yes'];52.3721057;https://www.pararius.nl/overig-te-koop/amsterdam/PB0002321246/nieuwezijds-voorburgwal;Beschikbaar;4.8909434;Burgwallen-Nieuwe Zijde;[];1;245000;Nieuwezijds Voorburgwal;29;125;Overig;1870;1012RK
205;23-05-2018;['No'];52.35578368;https://www.pararius.nl/appartement-te-koop/amsterdam/PB0002385073/linnaeusparkweg;Beschikbaar;4.93108171;Middenmeer;2;3;350000;Linnaeusparkweg;51;192;Appartement;[];1098EA
206;30-03-2018;['Yes', 'Riante tuin van 17 meter diep over de breedte van het perceel. De tuin is sfeervol aangelegd en zeer goed onderhouden, net zoals de rest van het gebouw.'];52.37423475;https://www.pararius.nl/appartement-te-koop/amsterdam/PB0002342495/bloemgracht;Beschikbaar;4.87799681;Jordaan;4;6;1160000;Bloemgracht;140;440;Appartement;1640;1015TT
207;> 3 maanden;['No'];52.40107593;https://www.pararius.nl/appartement-te-koop/amsterdam/PB0000332342/dijkwater;Beschikbaar;4.93665482;Buikslotermeer;1;2;211000;Dijkwater;64;160;Appartement;1981;1025CW
208;23-05-2018;['No'];52.38301577;https://www.pararius.nl/appartement-te-koop/amsterdam/PB0002386051/van-hogendorpstraat;Beschikbaar;4.87384212;Staatsliedenbuurt;1;2;250000;Van Hogendorpstraat;41;125;Appartement;1902;1051BM
209;> 3 maanden;['No'];52.37736727;https://www.pararius.nl/appartement-te-koop/amsterdam/PB0002336289/knsm-laan;Beschikbaar;4.94160987;Oostelijk Havengebied;2;3;425000;KNSM-laan;87;125;Appartement;1996;1019LG
210;> 3 maanden;['No'];52.37777739;https://www.pararius.nl/woonhuis-te-koop/amsterdam/PB0001796967/hekelveld;Beschikbaar;4.8953592;Burgwallen-Nieuwe Zijde;2;3;850000;Hekelveld;128;125;Woonhuis;1850;1012SN
211;14-03-2018;['No'];52.36493868;https://www.pararius.nl/appartement-te-koop/amsterdam/PB0002330527/eerste-constantijn-huygensstraat;Beschikbaar;4.87319975;Helmersbuurt;2;3;750000;Eerste Constantijn Huygensstraat;117;380;Appartement;2011;1054BR
212;07-05-2018;['No'];52.3534086;https://www.pararius.nl/appartement-te-koop/amsterdam/PB0002377905/rosa-manusstraat;Beschikbaar;4.79641993;Osdorp-Midden;[];3;259000;Rosa Manusstraat;71;222;Appartement;1983;1069RD
213;03-05-2018;['No'];52.37396534;https://www.pararius.nl/woonhuis-te-koop/amsterdam/PB0002371362/bloemstraat;Beschikbaar;4.88014389;Jordaan;3;5;825000;Bloemstraat;213;800;Woonhuis;1905;1016LG
214;14-05-2018;['No'];52.37357577;https://www.pararius.nl/appartement-te-koop/amsterdam/PB0002377005/willem-de-zwijgerlaan;Beschikbaar;4.86292312;De Krommert;2;3;275000;Willem de Zwijgerlaan;51;166;Appartement;[];1056JJ
215;> 3 maanden;['Yes', 'ja'];52.34260844;https://www.pararius.nl/woonhuis-te-koop/amsterdam/PB0002203401/schaarbeekstraat;Beschikbaar;4.80981482;Sloten- en Riekerpolder;5;6;535000;Schaarbeekstraat;173;580;Woonhuis;1993;1066JW
216;14-05-2018;['No'];52.34633565;https://www.pararius.nl/appartement-te-koop/amsterdam/PB0002379782/holbeinstraat;Bieding;4.87564589;Station-Zuid WTC en omgeving;7;8;1300000;Holbeinstraat;200;760;Appartement;1932;1077VB
217;> 3 maanden;['No'];52.38846096;https://www.pararius.nl/appartement-te-koop/amsterdam/PB0002383890/zuiderzeepark;Beschikbaar;4.95946379;Waterland;2;3;265000;Zuiderzeepark;73;760;Appartement;1995;1024MG
218;04-05-2018;['Yes', 'achtertuin'];52.38424408;https://www.pararius.nl/appartement-te-koop/amsterdam/PB0002371073/doggersbankstraat;Verkocht onder voorbehoud;4.85085539;Landlust;2;3;275000;Doggersbankstraat;49;177;Appartement;1936;1055NZ
219;25-05-2018;['No'];52.31723979;https://www.pararius.nl/appartement-te-koop/amsterdam/PB0002386401/bijlmerdreef;Beschikbaar;4.95627777;Bijlmer-Oost (E, G, K);2;3;255000;Bijlmerdreef;85;226;Appartement;2008;1102AC
220;10-04-2018;['No'];52.37718516;https://www.pararius.nl/appartement-te-koop/amsterdam/PB0002350443/hoofdweg;Beschikbaar;4.84612376;Westindische buurt;2;3;439000;Hoofdweg;98;310;Appartement;2009;1055SC
221;> 3 maanden;['No'];52.38197018;https://www.pararius.nl/appartement-te-koop/amsterdam/PB0002305348/de-kempenaerstraat;Verkocht onder voorbehoud;4.86902202;Staatsliedenbuurt;1;2;265000;De Kempenaerstraat;36;122;Appartement;1906;1051CN
222;04-04-2018;['Yes', 'achtertuin'];52.37885363;https://www.pararius.nl/woonhuis-te-koop/amsterdam/PB0002346246/jan-den-haenstraat;Bieding;4.8613627;Landlust;3;4;550000;Jan den Haenstraat;115;345;Woonhuis;1935;1055WG
223;12-05-2018;['No'];52.30770008;https://www.pararius.nl/appartement-te-koop/amsterdam/PB0002375640/leerdamhof;Beschikbaar;4.97543203;Nellestein;2;3;215000;Leerdamhof;75;198;Appartement;1976;1108BH
224;18-05-2018;['No'];52.36489628;https://www.pararius.nl/appartement-te-koop/amsterdam/PB0002380986/djambistraat;Beschikbaar;4.93788849;Indische Buurt West;[];3;300000;Djambistraat;57;140;Appartement;1913;1094BB
225;04-05-2018;['No'];52.37909874;https://www.pararius.nl/appartement-te-koop/amsterdam/PB0002371098/sam-van-houtenstraat;Beschikbaar;4.7988388;Geuzenveld;[];4;250000;Sam van Houtenstraat;65;170;Appartement;1960;1067JK
226;06-04-2018;['No'];52.39408109;https://www.pararius.nl/appartement-te-koop/amsterdam/PB0002380056/zandvoortstraat;Beschikbaar;4.95529595;Nieuwendam-Noord;2;3;295000;Zandvoortstraat;88;255;Appartement;2003;1024VS
227;09-05-2018;['Yes', 'zonneterras'];52.34704458;https://www.pararius.nl/woonhuis-te-koop/amsterdam/PB0002374209/emmy-andriessestraat;Verkocht onder voorbehoud;5.00930595;IJburg Zuid;4;5;599000;Emmy Andriessestraat;138;582;Woonhuis;2010;1087LS
228;16-04-2018;['Yes', 'achtertuin'];52.34958097;https://www.pararius.nl/woonhuis-te-koop/amsterdam/PB0002355112/sloterkade;Verkocht onder voorbehoud;4.85143575;Hoofddorppleinbuurt;4;6;695000;Sloterkade;109;402;Woonhuis;1910;1059EB
229;30-03-2018;['No'];52.30944489;https://www.pararius.nl/appartement-te-koop/amsterdam/PB0002342805/leksmondhof;Verkocht onder voorbehoud;4.98097331;Nellestein;1;3;185000;Leksmondhof;58;174;Appartement;1976;1108GA
230;12-03-2018;['No'];52.35509624;https://www.pararius.nl/appartement-te-koop/amsterdam/PB0002318745/paardekraalstraat;Beschikbaar;4.92532009;Transvaalbuurt;1;2;375000;Paardekraalstraat;66;275;Appartement;1912;1092JA
231;09-05-2018;['No'];52.38122845;https://www.pararius.nl/appartement-te-koop/amsterdam/PB0002374599/eerste-keucheniusstraat;Bieding;4.87205627;Staatsliedenbuurt;3;5;580000;Eerste Keucheniusstraat;91;285;Appartement;[];1051HS
232;21-03-2018;['No'];52.37751517;https://www.pararius.nl/appartement-te-koop/amsterdam/PB0002336515/bogortuin;Verkocht onder voorbehoud;4.93322268;Oostelijk Havengebied;[];3;500000;Bogortuin;93;313;Appartement;2001;1019PG
233;30-04-2018;['No'];52.36299534;https://www.pararius.nl/overig-te-koop/amsterdam/PB0002365637/nieuwe-achtergracht;Beschikbaar;4.9091913;Weesperbuurt/Plantage;1;2;235000;Nieuwe Achtergracht;39;313;Overig;[];1018WN
234;01-05-2018;['No'];52.37311489;https://www.pararius.nl/appartement-te-koop/amsterdam/PB0002365827/windroosplein;Verkocht onder voorbehoud;4.92488284;Oostelijke Eilanden/Kadijken;1;2;249000;Windroosplein;43;144;Appartement;1989;1018ZW
235;10-04-2018;['No'];52.361771;https://www.pararius.nl/appartement-te-koop/amsterdam/PB0002351505/ruimzicht;Verkocht onder voorbehoud;4.80993248;Osdorp-Oost;1;2;185000;Ruimzicht;53;163;Appartement;1966;1068CX
236;03-04-2018;['No'];52.35443917;https://www.pararius.nl/appartement-te-koop/amsterdam/PB0002346154/vogelenzangstraat;Verkocht onder voorbehoud;4.84656257;Hoofddorppleinbuurt;2;3;315000;Vogelenzangstraat;56;179;Appartement;1930;1058SW
237;> 3 maanden;['Yes', 'ja'];52.35005838;https://www.pararius.nl/woonhuis-te-koop/amsterdam/PB0002305842/lomondlaan;Verkocht onder voorbehoud;4.77911623;Middelveldsche Akerpolder en Sloten;4;5;375000;Lomondlaan;111;385;Woonhuis;1998;1060PL
238;> 3 maanden;['No'];52.3562381;https://www.pararius.nl/opslagruimte-te-koop/amsterdam/PB0002248718/erich-salomonstraat;Verkocht onder voorbehoud;4.99793959;IJburg West;[];4;350000;Erich Salomonstraat;100;350;Opslagruimte;2005;1087GZ
239;> 3 maanden;['Yes', 'achtertuin'];52.35510804;https://www.pararius.nl/appartement-te-koop/amsterdam/PB0002184327/transvaalstraat;Verkocht onder voorbehoud;4.92603922;Transvaalbuurt;2;3;375000;Transvaalstraat;66;257;Appartement;1913;1092HC
240;> 3 maanden;['No'];52.34512756;https://www.pararius.nl/appartement-te-koop/amsterdam/PB0002206768/beethovenstraat;Verkocht onder voorbehoud;4.87686319;Station-Zuid WTC en omgeving;3;4;499000;Beethovenstraat;86;270;Appartement;1931;1077HZ
241;12-03-2018;['No'];52.36697695;https://www.pararius.nl/appartement-te-koop/amsterdam/PB0002318979/geschutswerf;Verkocht onder voorbehoud;4.92046863;Oostelijke Eilanden/Kadijken;2;3;1160000;Geschutswerf;147;599;Appartement;1840;1018AW
242;> 3 maanden;['Yes'];52.37892632;https://www.pararius.nl/appartement-te-koop/amsterdam/PB0002379528/kostverlorenstraat;Beschikbaar;4.87383071;Frederik Hendrikbuurt;[];2;500000;Kostverlorenstraat;97;599;Appartement;1922;1052GX
243;18-05-2018;['No'];52.35042465;https://www.pararius.nl/appartement-te-koop/amsterdam/PB0002380994/cornelis-trooststraat;Beschikbaar;4.88817702;Nieuwe Pijp;[];1;297500;Cornelis Trooststraat;47;143;Appartement;1924;1072JG
244;> 3 maanden;['No'];52.37255579;https://www.pararius.nl/appartement-te-koop/amsterdam/PB0002217454/jacob-burggraafstraat;Beschikbaar;4.92211332;Oostelijke Eilanden/Kadijken;2;3;425000;Jacob Burggraafstraat;74;185;Appartement;1990;1018WA
245;26-03-2018;['Yes', 'achtertuin'];52.34457127;https://www.pararius.nl/woonhuis-te-koop/amsterdam/PB0002373093/brusselsingel;Verkocht onder voorbehoud;4.80868864;Sloten- en Riekerpolder;3;4;439000;Brusselsingel;127;422;Woonhuis;1994;1066WJ
246;12-04-2018;['No'];52.38104648;https://www.pararius.nl/appartement-te-koop/amsterdam/PB0002352497/goudsbloemstraat;Verkocht onder voorbehoud;4.88620219;Jordaan;2;3;430000;Goudsbloemstraat;59;142;Appartement;1986;1015JP
247;> 3 maanden;['Yes', 'ja'];52.39122329;https://www.pararius.nl/woonhuis-te-koop/amsterdam/PB0002304163/nieuwendammerdijk;Beschikbaar;4.93607919;Ijplein/Vogelbuurt;4;6;1200000;Nieuwendammerdijk;170;456;Woonhuis;2018;1025LW
248;25-05-2018;['No'];52.35642813;https://www.pararius.nl/appartement-te-koop/amsterdam/PB0002387117/hendrik-de-bruynstraat;Beschikbaar;4.8277931;Slotervaart;2;3;275000;Hendrik de Bruynstraat;76;194;Appartement;[];1065EE
249;> 3 maanden;['No'];52.33881697;https://www.pararius.nl/appartement-te-koop/amsterdam/PB0002354809/welnastraat;Beschikbaar;4.92067123;De Omval;[];1;189000;Welnastraat;28;95;Appartement;2014;1096GJ
250;> 3 maanden;['No'];52.35204048;https://www.pararius.nl/appartement-te-koop/amsterdam/PB0002389488/akersingel;Beschikbaar;4.77829648;Middelveldsche Akerpolder en Sloten;2;3;275000;Akersingel;89;285;Appartement;1997;1060NJ
251;08-05-2018;['No'];52.35293524;https://www.pararius.nl/appartement-te-koop/amsterdam/PB0002373315/de-lairessestraat;Beschikbaar;4.86798133;Museumkwartier;2;3;570000;De Lairessestraat;72;261;Appartement;1923;1075HL
252;18-04-2018;['No'];52.38098374;https://www.pararius.nl/appartement-te-koop/amsterdam/PB0002356430/jephtastraat;Verkocht onder voorbehoud;4.84541648;Landlust;2;3;250000;Jephtastraat;88;271;Appartement;1960;1055JS
253;> 3 maanden;['No'];52.35416326;https://www.pararius.nl/appartement-te-koop/amsterdam/PB0002228977/eerste-schinkelstraat;Beschikbaar;4.85509406;Schinkelbuurt;1;2;340000;Eerste Schinkelstraat;53;163;Appartement;1906;1075TX
254;> 3 maanden;['No'];52.37687076;https://www.pararius.nl/opslagruimte-te-koop/amsterdam/PB0002338842/lanseloetstraat;Verkocht onder voorbehoud;4.85010747;Erasmuspark;2;3;275000;Lanseloetstraat;55;190;Opslagruimte;1940;1055BE
255;> 3 maanden;['No'];52.40445861;https://www.pararius.nl/woonhuis-te-koop/amsterdam/PB0002283588/amerbos;Verkocht onder voorbehoud;4.94229267;Buikslotermeer;1;1;129500;Amerbos;33;80;Woonhuis;1968;1025ZW
256;07-04-2018;['No'];52.3771271;https://www.pararius.nl/appartement-te-koop/amsterdam/PB0002348920/goeman-borgesiusstraat;Beschikbaar;4.79998109;Geuzenveld;2;3;360000;Goeman Borgesiusstraat;99;235;Appartement;1957;1067LN
257;18-05-2018;['No'];52.37523444;https://www.pararius.nl/appartement-te-koop/amsterdam/PB0002382945/oostelijke-handelskade;Bieding;4.93143974;Oostelijk Havengebied;2;3;650000;Oostelijke Handelskade;98;290;Appartement;2012;1019BW
258;> 3 maanden;['No'];52.35589551;https://www.pararius.nl/appartement-te-koop/amsterdam/PB0002306773/saenredamstraat;Verkocht onder voorbehoud;4.88754303;Oude Pijp;1;2;200000;Saenredamstraat;28;94;Appartement;[];1072CA
259;07-03-2018;['No'];52.37794352;https://www.pararius.nl/appartement-te-koop/amsterdam/PB0002333288/javakade;Verkocht onder voorbehoud;4.93009015;Oostelijk Havengebied;2;3;550000;Javakade;100;319;Appartement;1998;1019RW
260;06-03-2018;['No'];52.3692207;https://www.pararius.nl/appartement-te-koop/amsterdam/PB0002315603/rapenburgerstraat;Beschikbaar;4.90841942;Nieuwmarkt/Lastage;1;2;415000;Rapenburgerstraat;51;168;Appartement;1964;1011VK
261;28-05-2018;['No'];52.37214532;https://www.pararius.nl/appartement-te-koop/amsterdam/PB0002389114/rozengracht;Beschikbaar;4.87492241;Jordaan;2;3;500000;Rozengracht;76;198;Appartement;1894;1016SZ
262;04-05-2018;['No'];52.37179481;https://www.pararius.nl/appartement-te-koop/amsterdam/PB0002370995/jacob-burggraafstraat;Bieding;4.92287019;Oostelijke Eilanden/Kadijken;1;2;425000;Jacob Burggraafstraat;100;395;Appartement;2004;1018WA
263;24-05-2018;['No'];52.35176775;https://www.pararius.nl/appartement-te-koop/amsterdam/PB0002386158/hoofddorpplein;Beschikbaar;4.85005902;Hoofddorppleinbuurt;1;2;385000;Hoofddorpplein;65;214;Appartement;1927;1058PD
264;> 3 maanden;['Yes'];52.37256386;https://www.pararius.nl/woonhuis-te-koop/amsterdam/PB0002352776/hugo-de-grootkade;Beschikbaar;4.8698955;Frederik Hendrikbuurt;3;4;575000;Hugo de Grootkade;60;214;Woonhuis;1952;1052LX
265;> 3 maanden;['No'];52.35608601;https://www.pararius.nl/appartement-te-koop/amsterdam/PB0002367694/pieter-calandlaan;Beschikbaar;4.82957358;Osdorp-Oost;3;5;350000;Pieter Calandlaan;115;357;Appartement;[];1065KJ
266;> 3 maanden;['No'];52.36447368;https://www.pararius.nl/bedrijfsruimte-te-koop/amsterdam/PB0002271226/keizersgracht;Beschikbaar;4.88845946;Grachtengordel-West;[];5;9950000;Keizersgracht;115;357;Bedrijfsruimte;1770;1017EM
267;> 3 maanden;['Yes', 'ja'];52.34115981;https://www.pararius.nl/appartement-te-koop/amsterdam/PB0002365513/middenweg;Beschikbaar;4.94991191;Frankendael;3;4;425000;Middenweg;85;290;Appartement;1925;1097VE
268;> 3 maanden;['No'];52.37744067;https://www.pararius.nl/appartement-te-koop/amsterdam/PB0002355029/willem-baerdesenstraat;Beschikbaar;4.80341349;Geuzenveld;2;3;249500;Willem Baerdesenstraat;82;290;Appartement;2004;1067XX
269;> 3 maanden;['No'];52.35010298;https://www.pararius.nl/appartement-te-koop/amsterdam/PB0002331451/overamstelstraat;Beschikbaar;4.91267649;Weesperzijde;1;2;239500;Overamstelstraat;39;290;Appartement;1913;1091TL
270;> 3 maanden;['No'];52.35369547;https://www.pararius.nl/appartement-te-koop/amsterdam/PB0002359989/wittgensteinlaan;Verkocht onder voorbehoud;4.83537216;Westlandgracht;2;3;425000;Wittgensteinlaan;94;285;Appartement;1991;1062KC
271;> 3 maanden;['No'];52.38444419;https://www.pararius.nl/appartement-te-koop/amsterdam/PB0002362580/gibraltarstraat;Beschikbaar;4.84939882;Landlust;2;3;375000;Gibraltarstraat;70;225;Appartement;1936;1055NT
272;> 3 maanden;['No'];52.36288872;https://www.pararius.nl/appartement-te-koop/amsterdam/PB0002357423/eerste-van-swindenstraat;Verkocht onder voorbehoud;4.92766137;Dapperbuurt;1;2;250000;Eerste Van Swindenstraat;43;135;Appartement;1881;1093GB
273;04-04-2018;['No'];52.37902406;https://www.pararius.nl/appartement-te-koop/amsterdam/PB0002346244/jan-den-haenstraat;Bieding;4.86128725;Landlust;1;2;295000;Jan den Haenstraat;52;140;Appartement;1935;1055WH
274;10-04-2018;['Yes', 'achtertuin'];52.29368703;https://www.pararius.nl/woonhuis-te-koop/amsterdam/PB0002350768/twellostraat;Verkocht onder voorbehoud;4.96745579;Holendrecht/Reigersbos;2;3;225000;Twellostraat;73;250;Woonhuis;1984;1107PH
275;23-04-2018;['No'];52.32450308;https://www.pararius.nl/appartement-te-koop/amsterdam/PB0002360088/dostojevskisingel;Beschikbaar;4.94925446;Bijlmer-Centrum (D, F, H);3;4;300000;Dostojevskisingel;101;259;Appartement;1983;1102XM
276;21-05-2018;['Yes', 'achtertuin'];52.34340497;https://www.pararius.nl/appartement-te-koop/amsterdam/PB0002383359/vechtstraat;Beschikbaar;4.9076853;Rijnbuurt;3;4;500000;Vechtstraat;81;293;Appartement;1906;1079JC
277;16-05-2018;['No'];52.34765605;https://www.pararius.nl/woonhuis-te-koop/amsterdam/PB0002381094/peter-martensstraat;Beschikbaar;5.01114898;IJburg Zuid;[];5;475000;Peter Martensstraat;113;412;Woonhuis;2011;1087NA
278;15-05-2018;['No'];52.3820612;https://www.pararius.nl/appartement-te-koop/amsterdam/PB0002377625/van-boetzelaerstraat;Beschikbaar;4.87134159;Staatsliedenbuurt;5;6;525000;Van Boetzelaerstraat;98;280;Appartement;[];1051EA
279;30-04-2018;['No'];52.35629451;https://www.pararius.nl/appartement-te-koop/amsterdam/PB0002365656/ekingenstraat;Verkocht onder voorbehoud;4.79658702;Osdorp-Midden;2;3;239000;Ekingenstraat;81;241;Appartement;1962;1069GV
280;06-03-2018;['No'];52.3692207;https://www.pararius.nl/appartement-te-koop/amsterdam/PB0002315593/rapenburgerstraat;Beschikbaar;4.90841942;Nieuwmarkt/Lastage;1;2;350000;Rapenburgerstraat;44;169;Appartement;1964;1011VK
281;> 3 maanden;['No'];52.35650879;https://www.pararius.nl/appartement-te-koop/amsterdam/PB0002373081/langswater;Verkocht onder voorbehoud;4.78914181;De Punt;3;4;172000;Langswater;72;224;Appartement;1963;1069ED
282;> 3 maanden;['Yes', 'ja'];52.42368439;https://www.pararius.nl/woonhuis-te-koop/amsterdam/PB0002362056/noorder-valdeur;Verkocht onder voorbehoud;4.89273248;Oostzanerwerf;3;4;325000;Noorder Valdeur;93;325;Woonhuis;1993;1035KA
283;16-04-2018;['Yes'];52.31952714;https://www.pararius.nl/woonhuis-te-koop/amsterdam/PB0002354707/janusz-korczakstraat;Beschikbaar;4.95750226;Bijlmer-Centrum (D, F, H);3;4;349000;Janusz Korczakstraat;141;526;Woonhuis;2002;1102JP
284;25-04-2018;['Yes', 'achtertuin'];52.40589045;https://www.pararius.nl/woonhuis-te-koop/amsterdam/PB0002362316/boterkersstraat;Verkocht onder voorbehoud;4.90044143;Tuindorp Oostzaan;3;4;530000;Boterkersstraat;127;360;Woonhuis;2013;1036KT
285;> 3 maanden;['No'];52.40068417;https://www.pararius.nl/appartement-te-koop/amsterdam/PB0002356827/dijkwater;Verkocht onder voorbehoud;4.93762858;Buikslotermeer;1;2;184500;Dijkwater;66;201;Appartement;1981;1025CW
286;18-04-2018;['No'];52.38343458;https://www.pararius.nl/appartement-te-koop/amsterdam/PB0002356519/eerste-nassaustraat;Verkocht onder voorbehoud;4.87925715;Staatsliedenbuurt;1;1;200000;Eerste Nassaustraat;31;104;Appartement;1882;1052BH
287;> 3 maanden;['Yes'];52.36463026;https://www.pararius.nl/appartement-te-koop/amsterdam/PB0002352338/tweede-helmersstraat;Beschikbaar;4.87669759;Helmersbuurt;1;2;525000;Tweede Helmersstraat;70;104;Appartement;1905;1054CK
288;> 3 maanden;['No'];52.37725833;https://www.pararius.nl/appartement-te-koop/amsterdam/PB0002295891/de-rijpgracht;Verkocht onder voorbehoud;4.86238027;Landlust;2;3;530000;De Rijpgracht;94;334;Appartement;1934;1056XP
289;13-03-2018;['No'];52.3417516;https://www.pararius.nl/woonhuis-te-koop/amsterdam/PB0002380098/ijsbaanpad;Beschikbaar;4.84917611;Stadionbuurt;2;3;389000;IJsbaanpad;65;170;Woonhuis;1986;1076CW
290;22-05-2018;['No'];52.3647077;https://www.pararius.nl/appartement-te-koop/amsterdam/PB0002385102/nieuwe-kerkstraat;Beschikbaar;4.90813044;Weesperbuurt/Plantage;1;1;675000;Nieuwe Kerkstraat;100;170;Appartement;[];1018VK
291;> 3 maanden;['No'];52.35377785;https://www.pararius.nl/appartement-te-koop/amsterdam/PB0001903078/prins-hendriklaan;Beschikbaar;4.86136628;Willemspark;1;2;1095000;Prins Hendriklaan;107;415;Appartement;1901;1075BD
292;03-05-2018;['Yes', 'achtertuin'];52.38272496;https://www.pararius.nl/woonhuis-te-koop/amsterdam/PB0002373103/burgemeester-vening-meineszlaan;Beschikbaar;4.83132427;Slotermeer-Noordoost;4;5;550000;Burgemeester Vening Meineszlaan;142;465;Woonhuis;1953;1063AX
293;11-04-2018;['No'];52.37170539;https://www.pararius.nl/appartement-te-koop/amsterdam/PB0002351861/groenmarktkade;Bieding;4.87503028;Jordaan;1;2;365000;Groenmarktkade;54;160;Appartement;[];1016TA
294;21-03-2018;['No'];52.37237985;https://www.pararius.nl/appartement-te-koop/amsterdam/PB0002336514/pompmanstraat;Verkocht onder voorbehoud;4.94903149;Oostelijk Havengebied;[];6;750000;Pompmanstraat;149;517;Appartement;1999;1019WS
295;> 3 maanden;['Yes'];52.29343723;https://www.pararius.nl/appartement-te-koop/amsterdam/PB0002222753/scherpenzeelstraat;Beschikbaar;4.97824657;Holendrecht/Reigersbos;2;3;190000;Scherpenzeelstraat;72;180;Appartement;1986;1107HR
296;17-05-2018;['No'];52.3849878;https://www.pararius.nl/appartement-te-koop/amsterdam/PB0002382486/joan-melchior-kemperstraat;Beschikbaar;4.87262951;Staatsliedenbuurt;2;3;365000;Joan Melchior Kemperstraat;60;126;Appartement;1905;1051TV
297;28-05-2018;"['Yes', 'achtertuin;zonneterras']";52.35109494;https://www.pararius.nl/appartement-te-koop/amsterdam/PB0002389006/schollenbrugpad;Beschikbaar;4.91350249;Weesperzijde;1;3;595000;Schollenbrugpad;94;347;Appartement;2006;1091ST
298;> 3 maanden;['No'];52.36206768;https://www.pararius.nl/appartement-te-koop/amsterdam/PB0001885127/stadhouderskade;Beschikbaar;4.88063221;Oude Pijp;3;5;1850000;Stadhouderskade;224;653;Appartement;1991;1054ES
299;> 3 maanden;['No'];52.35419857;https://www.pararius.nl/appartement-te-koop/amsterdam/PB0002373767/simon-stevinstraat;Beschikbaar;4.92791281;Frankendael;6;10;960000;Simon Stevinstraat;200;653;Appartement;1920;1097BZ
300;02-05-2018;['No'];52.37931648;https://www.pararius.nl/appartement-te-koop/amsterdam/PB0002389363/leeuwendalersweg;Bieding;4.84639149;De Kolenkit;2;3;349000;Leeuwendalersweg;81;255;Appartement;2004;1055JE
301;04-05-2018;['Yes', 'achtertuin'];52.32379855;https://www.pararius.nl/woonhuis-te-koop/amsterdam/PB0002371353/wallestein;Beschikbaar;4.86428816;Buitenveldert-West;4;5;580000;Wallestein;130;449;Woonhuis;[];1081BD
302;19-03-2018;['No'];52.36329452;https://www.pararius.nl/appartement-te-koop/amsterdam/PB0002385358/sarphatistraat;Beschikbaar;4.9188337;Weesperbuurt/Plantage;1;3;385000;Sarphatistraat;64;450;Appartement;1890;1018GW
303;> 3 maanden;['No'];52.37392689;https://www.pararius.nl/appartement-te-koop/amsterdam/PB0002385802/admiraal-de-ruijterweg;Beschikbaar;4.85901279;Landlust;2;3;425000;Admiraal De Ruijterweg;77;450;Appartement;1912;1056GV
304;> 3 maanden;['No'];52.35599973;https://www.pararius.nl/appartement-te-koop/amsterdam/PB0002372092/pretoriusstraat;Beschikbaar;4.92652903;Transvaalbuurt;1;2;225000;Pretoriusstraat;34;125;Appartement;[];1092EW
305;> 3 maanden;['No'];52.36188821;https://www.pararius.nl/appartement-te-koop/amsterdam/PB0001157925/crynssenstraat;Beschikbaar;4.8560878;Westindische buurt;1;3;174500;Crynssenstraat;57;145;Appartement;1931;1058XT
306;> 3 maanden;['No'];52.37149149;https://www.pararius.nl/overig-te-koop/amsterdam/PB0002372090/borneolaan;Beschikbaar;4.93742522;Oostelijk Havengebied;[];3;35000;Borneolaan;57;145;Overig;[];1019HZ
307;> 3 maanden;['No'];52.37779053;https://www.pararius.nl/appartement-te-koop/amsterdam/PB0002351305/bos-en-lommerplein;Verkocht onder voorbehoud;4.84682131;De Kolenkit;2;3;390000;Bos en Lommerplein;79;270;Appartement;2008;1055AD
308;23-05-2018;['No'];52.3524746;https://www.pararius.nl/appartement-te-koop/amsterdam/PB0002384690/rustenburgerstraat;Beschikbaar;4.89913294;Diamantbuurt;2;3;699000;Rustenburgerstraat;105;346;Appartement;1896;1073GA
309;> 3 maanden;['No'];52.34923588;https://www.pararius.nl/appartement-te-koop/amsterdam/PB0002350598/ecuplein;Beschikbaar;4.78524773;Middelveldsche Akerpolder en Sloten;2;3;300000;Ecuplein;87;346;Appartement;1999;1060RN
310;04-04-2018;['Yes', 'achtertuin'];52.37902406;https://www.pararius.nl/appartement-te-koop/amsterdam/PB0002346243/jan-den-haenstraat;Bieding;4.86128725;Landlust;2;3;550000;Jan den Haenstraat;115;345;Appartement;1931;1055WH
311;> 3 maanden;['Yes'];52.31305124;https://www.pararius.nl/woonhuis-te-koop/amsterdam/PB0002370908/1e-kekerstraat;Beschikbaar;4.98162959;Bijlmer-Oost (E, G, K);2;3;250000;1e Kekerstraat;97;345;Woonhuis;2007;1104VA
312;19-04-2018;['Yes', 'achtertuin'];52.35282512;https://www.pararius.nl/appartement-te-koop/amsterdam/PB0002358812/van-ostadestraat;Verkocht onder voorbehoud;4.89695676;Nieuwe Pijp;1;3;340000;Van Ostadestraat;54;208;Appartement;1910;1073TV
313;09-04-2018;['No'];52.36600271;https://www.pararius.nl/appartement-te-koop/amsterdam/PB0002349843/president-allendelaan;Gepasseerd;4.80777784;Osdorp-Oost;3;4;395000;President Allendelaan;106;208;Appartement;2006;1068VM
314;04-04-2018;['Yes', 'Nieuwe tuin 1'];52.35289935;https://www.pararius.nl/appartement-te-koop/amsterdam/PB0002345008/albert-luthulistraat;Verkocht onder voorbehoud;4.91975068;Transvaalbuurt;2;3;250000;Albert Luthulistraat;49;175;Appartement;1923;1091NR
315;17-05-2018;['No'];52.35042488;https://www.pararius.nl/appartement-te-koop/amsterdam/PB0002381244/apollolaan;Beschikbaar;4.87768291;Apollobuurt;4;8;1500000;Apollolaan;231;805;Appartement;1927;1077AM
316;19-05-2018;['No'];52.39013935;https://www.pararius.nl/appartement-te-koop/amsterdam/PB0002382232/polanenstraat;Beschikbaar;4.87715308;Spaarndammer- en Zeeheldenbuurt;[];4;599000;Polanenstraat;89;310;Appartement;1921;1013WB
317;23-04-2018;['No'];52.34456899;https://www.pararius.nl/appartement-te-koop/amsterdam/PB0002379212/jasonstraat;Verkocht onder voorbehoud;4.8601546;Station-Zuid WTC en omgeving;1;3;465000;Jasonstraat;63;170;Appartement;1935;1076KW
318;14-05-2018;['No'];52.40349621;https://www.pararius.nl/appartement-te-koop/amsterdam/PB0002380062/jesse-owenshof;Beschikbaar;4.92106861;Banne Buiksloot;2;4;400000;Jesse Owenshof;103;299;Appartement;1995;1034WT
319;> 3 maanden;['No'];52.36658455;https://www.pararius.nl/appartement-te-koop/amsterdam/PB0002349385/ten-katestraat;Beschikbaar;4.86727834;Van Lennepbuurt;[];1;275000;Ten Katestraat;42;299;Appartement;1894;1053BZ
320;03-04-2018;['No'];52.37687945;https://www.pararius.nl/appartement-te-koop/amsterdam/PB0002344398/elckerlijcstraat;Beschikbaar;4.84806603;Erasmuspark;2;3;299000;Elckerlijcstraat;49;161;Appartement;[];1055AN
321;> 3 maanden;['Yes', 'balkon. Orientatie: Zuid'];52.3645097;https://www.pararius.nl/woonhuis-te-koop/amsterdam/PB0002333070/boutenburg;Verkocht onder voorbehoud;4.80208611;Osdorp-Oost;2;3;209000;Boutenburg;65;195;Woonhuis;1961;1068XZ
322;> 3 maanden;['No'];52.38645347;https://www.pararius.nl/appartement-te-koop/amsterdam/PB0002379548/prinseneiland;Beschikbaar;4.88747779;Haarlemmerbuurt;2;3;725000;Prinseneiland;133;425;Appartement;[];1013LL
323;> 3 maanden;['No'];52.37756341;https://www.pararius.nl/appartement-te-koop/amsterdam/PB0002383576/koggestraat;Beschikbaar;4.89361394;Burgwallen-Nieuwe Zijde;2;3;550000;Koggestraat;71;425;Appartement;1906;1012TA
324;28-03-2018;['No'];52.3815117;https://www.pararius.nl/appartement-te-koop/amsterdam/PB0002342204/rochussenstraat;Verkocht onder voorbehoud;4.868998;Staatsliedenbuurt;1;2;430000;Rochussenstraat;82;242;Appartement;1915;1051JK
325;> 3 maanden;['No'];52.36923761;https://www.pararius.nl/appartement-te-koop/amsterdam/PB0002308284/entrepothof;Verkocht onder voorbehoud;4.93559798;Oostelijk Havengebied;2;3;350000;Entrepothof;79;241;Appartement;1991;1019DJ
326;> 3 maanden;['No'];52.36326903;https://www.pararius.nl/appartement-te-koop/amsterdam/PB0002372664/keizersgracht;Beschikbaar;4.89483002;Grachtengordel-West;1;2;875000;Keizersgracht;88;400;Appartement;1690;1017EV
327;20-03-2018;['No'];52.36205717;https://www.pararius.nl/appartement-te-koop/amsterdam/PB0002350810/vondelstraat;Beschikbaar;4.87609592;Museumkwartier;3;4;1250000;Vondelstraat;127;467;Appartement;1871;1054GG
328;22-05-2018;['Yes', 'achtertuin'];52.37679686;https://www.pararius.nl/appartement-te-koop/amsterdam/PB0002384121/marieken-van-nimwegenstraat;Beschikbaar;4.84966779;Erasmuspark;2;3;425000;Marieken van Nimwegenstraat;96;322;Appartement;1940;1055BL
329;> 3 maanden;['No'];52.35906509;https://www.pararius.nl/appartement-te-koop/amsterdam/PB0002362569/langswater;Verkocht onder voorbehoud;4.78810911;De Punt;3;4;214500;Langswater;72;223;Appartement;1970;1069EH
330;08-05-2018;['Yes', 'achtertuin'];52.37057835;https://www.pararius.nl/appartement-te-koop/amsterdam/PB0002373147/poolstraat;Beschikbaar;4.92207532;Oostelijke Eilanden/Kadijken;1;2;325000;Poolstraat;59;184;Appartement;1983;1018LR
331;17-05-2018;['Yes', 'zonneterras'];52.35593611;https://www.pararius.nl/appartement-te-koop/amsterdam/PB0002380723/warmondstraat;Beschikbaar;4.84962691;Hoofddorppleinbuurt;2;3;445000;Warmondstraat;64;196;Appartement;1931;1058KS
332;03-05-2018;['No'];52.34105602;https://www.pararius.nl/appartement-te-koop/amsterdam/PB0002387121/president-kennedylaan;Bieding;4.89379975;Scheldebuurt;2;4;450000;President Kennedylaan;80;209;Appartement;1934;1079NX
333;21-05-2018;['Yes', 'zonneterras'];52.36472557;https://www.pararius.nl/appartement-te-koop/amsterdam/PB0002383351/kerkstraat;Beschikbaar;4.8863865;Grachtengordel-Zuid;2;3;825000;Kerkstraat;101;405;Appartement;[];1017GN
334;18-05-2018;['No'];52.37960058;https://www.pararius.nl/appartement-te-koop/amsterdam/PB0002383061/trouringhstraat;Beschikbaar;4.84759234;Erasmuspark;3;4;289000;Trouringhstraat;66;215;Appartement;1940;1055HC
335;18-05-2018;['No'];52.3771271;https://www.pararius.nl/appartement-te-koop/amsterdam/PB0002382944/goeman-borgesiusstraat;Beschikbaar;4.79998109;Geuzenveld;2;3;360000;Goeman Borgesiusstraat;99;235;Appartement;1957;1067LN
336;> 3 maanden;['Yes', 'zonneterras'];52.36307263;https://www.pararius.nl/woonhuis-te-koop/amsterdam/PB0002281035/ijburglaan;Beschikbaar;4.98300761;IJburg West;3;5;650000;IJburglaan;156;524;Woonhuis;2010;1086ZJ
337;> 3 maanden;['No'];52.35455219;https://www.pararius.nl/appartement-te-koop/amsterdam/PB0002253034/van-woustraat;Verkocht onder voorbehoud;4.90166413;Oude Pijp;1;2;250000;Van Woustraat;38;93;Appartement;[];1074AE
338;> 3 maanden;['No'];52.32592968;https://www.pararius.nl/appartement-te-koop/amsterdam/PB0001899882/dalsteindreef;Beschikbaar;4.94617459;Bijlmer-Centrum (D, F, H);4;5;239990;Dalsteindreef;104;270;Appartement;1985;1102WZ
339;01-05-2018;['No'];52.36506069;https://www.pararius.nl/appartement-te-koop/amsterdam/PB0002366816/kerkstraat;Beschikbaar;4.88584659;Grachtengordel-Zuid;2;3;699000;Kerkstraat;74;211;Appartement;1906;1017GM
340;> 3 maanden;['No'];52.31030087;https://www.pararius.nl/appartement-te-koop/amsterdam/PB0002388635/leksmondhof;Beschikbaar;4.98159603;Nellestein;[];5;250000;Leksmondhof;92;211;Appartement;1970;1108EN
341;> 3 maanden;['No'];52.35558001;https://www.pararius.nl/appartement-te-koop/amsterdam/PB0002341860/gerard-doustraat;Beschikbaar;4.89159793;Oude Pijp;1;1;235000;Gerard Doustraat;33;89;Appartement;[];1072VW
342;19-04-2018;['No'];52.38396357;https://www.pararius.nl/appartement-te-koop/amsterdam/PB0002358912/bentinckstraat;Verkocht onder voorbehoud;4.87478588;Staatsliedenbuurt;1;2;250000;Bentinckstraat;40;123;Appartement;[];1051GC
343;17-05-2018;['No'];52.35778117;https://www.pararius.nl/appartement-te-koop/amsterdam/PB0002382261/hemonystraat;Beschikbaar;4.90224534;Oude Pijp;[];6;1730000;Hemonystraat;237;850;Appartement;1881;1074BL
344;13-04-2018;['No'];52.38354883;https://www.pararius.nl/appartement-te-koop/amsterdam/PB0002367871/eerste-nassaustraat;Verkocht onder voorbehoud;4.87865363;Staatsliedenbuurt;[];5;675000;Eerste Nassaustraat;100;331;Appartement;1905;1052BE
345;> 3 maanden;['No'];52.33176393;https://www.pararius.nl/appartement-te-koop/amsterdam/PB0002255941/arent-janszoon-ernststraat;Beschikbaar;4.88133002;Buitenveldert-West;3;4;449500;Arent Janszoon Ernststraat;100;331;Appartement;1986;1083JN
346;> 3 maanden;['Yes', 'ja'];52.39248867;https://www.pararius.nl/woonhuis-te-koop/amsterdam/PB0002360799/zwaagstraat;Verkocht onder voorbehoud;4.94511594;Tuindorp Nieuwendam;2;3;300000;Zwaagstraat;52;230;Woonhuis;1926;1023AR
347;18-04-2018;['No'];52.3616691;https://www.pararius.nl/appartement-te-koop/amsterdam/PB0002356802/brederodestraat;Verkocht onder voorbehoud;4.86542743;Overtoomse Sluis;2;3;395000;Brederodestraat;59;181;Appartement;[];1054MX
348;29-03-2018;['Yes', 'De achtertuin ligt heerlijk op het westen waardoor je vanaf het middaguur tot in de late uurtjes van de zon kunt genieten! In de ochtend kun je heerlijk op het terras aan de voorzijde met een kopje koffie van de zon genieten. De voortuin heeft naast het iets hoger gelegen terras een eigen oprit daarnaast is er voldoene openbare parkeergelegenheid.'];52.32694386;https://www.pararius.nl/woonhuis-te-koop/amsterdam/PB0002341871/geerdinkhof;Verkocht onder voorbehoud;4.98091598;Bijlmer-Oost (E, G, K);[];5;450000;Geerdinkhof;142;486;Woonhuis;1978;1103RB
349;18-05-2018;['Yes', 'achtertuin'];52.38276305;https://www.pararius.nl/appartement-te-koop/amsterdam/PB0002382126/admiraal-de-ruijterweg;Beschikbaar;4.85128456;Landlust;3;5;720000;Admiraal De Ruijterweg;140;457;Appartement;1913;1055ND
350;> 3 maanden;['No'];52.3364807;https://www.pararius.nl/appartement-te-koop/amsterdam/PB0002123756/gustav-mahlerlaan;Beschikbaar;4.87171773;Buitenveldert-West;1;1;400000;Gustav Mahlerlaan;48;180;Appartement;2014;1082MK
351;25-04-2018;['No'];52.35698439;https://www.pararius.nl/appartement-te-koop/amsterdam/PB0002364166/eastonstraat;Beschikbaar;4.81629218;Osdorp-Oost;3;4;215000;Eastonstraat;78;27573;Appartement;1962;1068HZ
352;25-05-2018;['No'];52.36166683;https://www.pararius.nl/appartement-te-koop/amsterdam/PB0002387116/eerste-weteringdwarsstraat;Beschikbaar;4.8899591;De Weteringschans;1;2;294000;Eerste Weteringdwarsstraat;36;92;Appartement;1983;1017TP
353;14-05-2018;['Yes', 'achtertuin'];52.39351999;https://www.pararius.nl/woonhuis-te-koop/amsterdam/PB0002376907/kamperfoelieweg;Beschikbaar;4.91428328;Volewijck;3;4;525000;Kamperfoelieweg;116;400;Woonhuis;1931;1032HN
354;01-05-2018;['No'];52.37597703;https://www.pararius.nl/appartement-te-koop/amsterdam/PB0002371578/bos-en-lommerplantsoen;Beschikbaar;4.84449931;De Kolenkit;1;1;175000;Bos en Lommerplantsoen;28;400;Appartement;2012;1055AA
355;29-04-2018;['No'];52.35151297;https://www.pararius.nl/appartement-te-koop/amsterdam/PB0002384935/karel-du-jardinstraat;Beschikbaar;4.89697125;Nieuwe Pijp;[];3;495000;Karel du Jardinstraat;74;200;Appartement;1921;1073TE
356;> 3 maanden;['Yes'];52.35940084;https://www.pararius.nl/woonhuis-te-koop/amsterdam/PB0002212618/alpert-van-metzhof;Beschikbaar;4.82542149;Slotervaart;3;4;370000;Alpert van Metzhof;87;200;Woonhuis;1956;1065AP
357;> 3 maanden;['Yes'];52.37264129;https://www.pararius.nl/woonhuis-te-koop/amsterdam/PB0002305039/wessel-gansfortstraat;Beschikbaar;4.80892462;Slotermeer-Zuidwest;3;5;430000;Wessel Gansfortstraat;90;200;Woonhuis;1955;1064NR
358;14-05-2018;['Yes', 'achtertuin'];52.34883956;https://www.pararius.nl/appartement-te-koop/amsterdam/PB0002376848/kromme-leimuidenstraat;Verkocht onder voorbehoud;4.85046137;Hoofddorppleinbuurt;1;2;400000;Kromme Leimuidenstraat;60;205;Appartement;1929;1059EL
359;09-04-2018;['No'];52.35417032;https://www.pararius.nl/appartement-te-koop/amsterdam/PB0002350624/govert-flinckstraat;Verkocht onder voorbehoud;4.88765052;Oude Pijp;1;2;300000;Govert Flinckstraat;51;130;Appartement;1991;1072EB
360;08-05-2018;['No'];52.31835032;https://www.pararius.nl/appartement-te-koop/amsterdam/PB0002374334/kikkenstein;Beschikbaar;4.97278138;Bijlmer-Oost (E, G, K);[];4;239000;Kikkenstein;92;252;Appartement;1970;1104TS
361;18-05-2018;['No'];52.29420022;https://www.pararius.nl/appartement-te-koop/amsterdam/PB0002382115/steenderenstraat;Beschikbaar;4.9831941;Gein;2;3;215000;Steenderenstraat;88;255;Appartement;1983;1107LD
362;> 3 maanden;['No'];52.36172896;https://www.pararius.nl/appartement-te-koop/amsterdam/PB0002382143/ruimzicht;Beschikbaar;4.80868515;Osdorp-Oost;1;2;179500;Ruimzicht;52;160;Appartement;1967;1068CV
363;> 3 maanden;['No'];52.36181896;https://www.pararius.nl/appartement-te-koop/amsterdam/PB0002321741/utrechtsedwarsstraat;Beschikbaar;4.90061568;De Weteringschans;[];2;550000;Utrechtsedwarsstraat;52;250;Appartement;1998;1017WD
364;> 3 maanden;['No'];52.36985704;https://www.pararius.nl/appartement-te-koop/amsterdam/PB0002206833/witte-de-withstraat;Beschikbaar;4.85936961;De Krommert;[];2;520000;Witte de Withstraat;105;250;Appartement;[];1057ZH
365;05-04-2018;['Yes', 'voortuin'];52.38739907;https://www.pararius.nl/appartement-te-koop/amsterdam/PB0002380060/kievitstraat;Beschikbaar;4.92100282;Nieuwendammerham;2;3;275000;Kievitstraat;49;181;Appartement;1920;1021VH
366;> 3 maanden;['No'];52.37736572;https://www.pararius.nl/appartement-te-koop/amsterdam/PB0002244824/burgemeester-roellstraat;Beschikbaar;4.80461874;Geuzenveld;2;3;235000;Burgemeester Roellstraat;85;259;Appartement;2004;1067XW
367;09-05-2018;['No'];52.3735812;https://www.pararius.nl/appartement-te-koop/amsterdam/PB0002380057/erik-de-roodestraat;Beschikbaar;4.84418528;De Kolenkit;3;4;470000;Erik de Roodestraat;93;318;Appartement;[];1056AL
368;> 3 maanden;['No'];52.3822846;https://www.pararius.nl/appartement-te-koop/amsterdam/PB0002354813/wiltzanghlaan;Verkocht onder voorbehoud;4.85082034;Landlust;2;3;300000;Wiltzanghlaan;63;200;Appartement;1950;1055KH
369;> 3 maanden;['Yes', 'Nieuwe tuin 1'];52.37189904;https://www.pararius.nl/appartement-te-koop/amsterdam/PB0002205499/herengracht;Beschikbaar;4.8866873;Grachtengordel-West;3;4;795000;Herengracht;135;574;Appartement;1886;1016BV
370;> 3 maanden;['No'];52.32811631;https://www.pararius.nl/appartement-te-koop/amsterdam/PB0002306705/rupelmonde;Verkocht onder voorbehoud;4.85902957;Buitenveldert-West;1;2;290000;Rupelmonde;60;183;Appartement;1985;1081GP
371;> 3 maanden;['No'];52.3461978;https://www.pararius.nl/woonhuis-te-koop/amsterdam/PB0002231664/diezestraat;Verkocht onder voorbehoud;4.89183476;Scheldebuurt;3;4;800000;Diezestraat;133;487;Woonhuis;1906;1078JP
372;> 3 maanden;['No'];52.3974486;https://www.pararius.nl/appartement-te-koop/amsterdam/PB0002376548/jisperveldstraat;Verkocht onder voorbehoud;4.94962118;Nieuwendam-Noord;2;3;275000;Jisperveldstraat;120;355;Appartement;1968;1024AE
373;> 3 maanden;['No'];52.37305222;https://www.pararius.nl/appartement-te-koop/amsterdam/PB0002362561/prins-hendrikkade;Verkocht onder voorbehoud;4.90688024;Nieuwmarkt/Lastage;2;4;650000;Prins Hendrikkade;155;442;Appartement;[];1011AV
374;17-04-2018;['No'];52.38517111;https://www.pararius.nl/appartement-te-koop/amsterdam/PB0002355733/groen-van-prinstererstraat;Beschikbaar;4.87137886;Staatsliedenbuurt;1;2;360000;Groen van Prinstererstraat;62;186;Appartement;1906;1051EE
375;20-05-2018;['No'];52.38934878;https://www.pararius.nl/appartement-te-koop/amsterdam/PB0002387623/van-heemskerckstraat;Beschikbaar;4.88565298;Spaarndammer- en Zeeheldenbuurt;[];2;310000;Van Heemskerckstraat;51;160;Appartement;1879;1013PA
376;23-03-2018;['Yes', 'achtertuin'];52.37841643;https://www.pararius.nl/appartement-te-koop/amsterdam/PB0002336369/prinsengracht;Beschikbaar;4.88699559;Grachtengordel-West;3;6;1500000;Prinsengracht;177;443;Appartement;[];1015DR
377;16-03-2018;['No'];52.3839694;https://www.pararius.nl/appartement-te-koop/amsterdam/PB0002332215/gibraltarstraat;Verkocht onder voorbehoud;4.84974241;Landlust;3;4;495000;Gibraltarstraat;113;361;Appartement;1937;1055NK
378;25-05-2018;['Yes', 'achtertuin'];52.35634787;https://www.pararius.nl/woonhuis-te-koop/amsterdam/PB0002387799/zwanebloemlaan;Beschikbaar;4.99039365;IJburg West;3;4;450000;Zwanebloemlaan;97;319;Woonhuis;2003;1087CD
379;01-05-2018;['No'];52.37782892;https://www.pararius.nl/appartement-te-koop/amsterdam/PB0002366838/rombout-hogerbeetsstraat;Bieding;4.87362312;Frederik Hendrikbuurt;1;2;275000;Rombout Hogerbeetsstraat;44;138;Appartement;1906;1052XC
380;06-03-2018;['No'];52.3692207;https://www.pararius.nl/appartement-te-koop/amsterdam/PB0002315605/rapenburgerstraat;Beschikbaar;4.90841942;Nieuwmarkt/Lastage;1;2;465000;Rapenburgerstraat;51;174;Appartement;1964;1011VK
381;10-04-2018;['No'];52.35955551;https://www.pararius.nl/appartement-te-koop/amsterdam/PB0002350341/sumatraplantsoen;Verkocht onder voorbehoud;4.94209702;Indische Buurt Oost;1;2;265000;Sumatraplantsoen;64;205;Appartement;1981;1095JB
382;> 3 maanden;['Yes', 'zonneterras'];52.36127644;https://www.pararius.nl/appartement-te-koop/amsterdam/PB0002286014/eerste-helmersstraat;Verkocht onder voorbehoud;4.86606332;Vondelbuurt;4;5;950000;Eerste Helmersstraat;164;420;Appartement;1899;1054EJ
383;23-03-2018;['No'];52.37468363;https://www.pararius.nl/woonhuis-te-koop/amsterdam/PB0002337927/van-karnebeekstraat;Beschikbaar;4.79841276;Geuzenveld;5;6;400000;Van Karnebeekstraat;143;560;Woonhuis;2010;1067RK
384;16-04-2018;['No'];52.34463582;https://www.pararius.nl/appartement-te-koop/amsterdam/PB0002355988/van-tuyll-van-serooskerkenweg;Beschikbaar;4.86103432;Stadionbuurt;4;6;815000;Van Tuyll van Serooskerkenweg;137;493;Appartement;[];1076JP
385;> 3 maanden;['Yes', 'achtertuin'];52.37713805;https://www.pararius.nl/woonhuis-te-koop/amsterdam/PB0002264732/goeman-borgesiusstraat;Beschikbaar;4.80037747;Geuzenveld;2;4;290000;Goeman Borgesiusstraat;94;223;Woonhuis;1957;1067LN
386;> 3 maanden;['No'];52.38182327;https://www.pararius.nl/appartement-te-koop/amsterdam/PB0002145498/van-beuningenstraat;Verkocht onder voorbehoud;4.87243124;Staatsliedenbuurt;2;3;475000;Van Beuningenstraat;84;250;Appartement;2005;1051XZ
387;10-04-2018;['Yes', 'achtertuin'];52.36398298;https://www.pararius.nl/appartement-te-koop/amsterdam/PB0002379110/borgerstraat;Verkocht onder voorbehoud;4.86227304;Van Lennepbuurt;1;2;325000;Borgerstraat;48;128;Appartement;[];1053PK
388;> 3 maanden;['No'];52.36685061;https://www.pararius.nl/appartement-te-koop/amsterdam/PB0002319467/geschutswerf;Verkocht onder voorbehoud;4.92033782;Oostelijke Eilanden/Kadijken;[];4;1100000;Geschutswerf;161;610;Appartement;[];1018AW
389;> 3 maanden;['No'];52.3731313;https://www.pararius.nl/appartement-te-koop/amsterdam/PB0002384519/burgemeester-cramergracht;Beschikbaar;4.83244307;Slotermeer-Zuidwest;2;3;215000;Burgemeester Cramergracht;64;215;Appartement;[];1064AG
390;> 3 maanden;['No'];52.29193966;https://www.pararius.nl/appartement-te-koop/amsterdam/PB0002375252/tielstraat;Beschikbaar;4.96893805;Holendrecht/Reigersbos;4;5;215000;Tielstraat;111;215;Appartement;1984;1107RA
391;23-05-2018;['No'];52.35595937;https://www.pararius.nl/appartement-te-koop/amsterdam/PB0002385072/pretoriusstraat;Beschikbaar;4.92539918;Transvaalbuurt;1;1;195000;Pretoriusstraat;26;74;Appartement;1908;1092GG
392;> 3 maanden;['Yes', 'ja'];52.33959154;https://www.pararius.nl/appartement-te-koop/amsterdam/PB0002384506/oogststraat;Beschikbaar;4.9415048;Betondorp;2;3;225000;Oogststraat;51;190;Appartement;1924;1097ZS
393;02-04-2018;['No'];52.34619373;https://www.pararius.nl/appartement-te-koop/amsterdam/PB0002344980/ardennenlaan;Beschikbaar;4.81148524;Sloten- en Riekerpolder;3;4;750000;Ardennenlaan;141;432;Appartement;1994;1066SE
394;> 3 maanden;['No'];52.40827435;https://www.pararius.nl/woonhuis-te-koop/amsterdam/PB0002248409/banne-buikslootlaan;Beschikbaar;4.91379717;Banne Buiksloot;2;3;350000;Banne Buikslootlaan;73;210;Woonhuis;2014;1034AB
395;28-03-2018;['No'];52.40598466;https://www.pararius.nl/appartement-te-koop/amsterdam/PB0002340940/statenjachtstraat;Verkocht onder voorbehoud;4.91623702;Banne Buiksloot;2;3;325000;Statenjachtstraat;92;277;Appartement;2010;1034GA
396;06-04-2018;['Yes', 'achtertuin'];52.34275909;https://www.pararius.nl/woonhuis-te-koop/amsterdam/PB0002348524/schaarbeekstraat;Verkocht onder voorbehoud;4.80753829;Sloten- en Riekerpolder;3;4;399069;Schaarbeekstraat;116;419;Woonhuis;1995;1066WH
397;> 3 maanden;['No'];52.37178582;https://www.pararius.nl/appartement-te-koop/amsterdam/PB0002341879/jacob-burggraafstraat;Verkocht onder voorbehoud;4.92287028;Oostelijke Eilanden/Kadijken;1;2;425000;Jacob Burggraafstraat;83;295;Appartement;2004;1018WA
398;> 3 maanden;['No'];52.36621744;https://www.pararius.nl/opslagruimte-te-koop/amsterdam/PB0002110426/tretjakovlaan;Verkocht onder voorbehoud;4.83195692;Slotervaart;[];3;339000;Tretjakovlaan;105;250;Opslagruimte;1998;1064PR
399;> 3 maanden;['Yes', 'ja'];52.30783327;https://www.pararius.nl/appartement-te-koop/amsterdam/PB0002381779/liendenhof;Beschikbaar;4.98277692;Nellestein;2;3;200000;Liendenhof;74;235;Appartement;1979;1108HT
400;03-04-2018;['No'];52.39322896;https://www.pararius.nl/appartement-te-koop/amsterdam/PB0002344425/waterlandplein;Beschikbaar;4.95443638;Nieuwendam-Noord;3;4;300000;Waterlandplein;98;319;Appartement;2010;1024NB
401;13-05-2018;['No'];52.35679618;https://www.pararius.nl/appartement-te-koop/amsterdam/PB0002375969/albert-cuypstraat;Beschikbaar;4.89876246;Oude Pijp;[];1;210000;Albert Cuypstraat;24;75;Appartement;2009;1073BR
402;14-05-2018;['No'];52.36738539;https://www.pararius.nl/appartement-te-koop/amsterdam/PB0002377595/passeerdersstraat;Beschikbaar;4.87992545;Jordaan;2;3;500000;Passeerdersstraat;70;171;Appartement;1990;1016ZA
403;18-04-2018;['No'];52.38559265;https://www.pararius.nl/appartement-te-koop/amsterdam/PB0002356872/bickerswerf;Verkocht onder voorbehoud;4.8900874;Haarlemmerbuurt;3;4;675000;Bickerswerf;115;320;Appartement;2003;1013KX
404;> 3 maanden;['No'];52.32515691;https://www.pararius.nl/appartement-te-koop/amsterdam/PB0002298962/kanteel;Verkocht onder voorbehoud;4.88109722;Buitenveldert-Oost;2;3;460000;Kanteel;100;276;Appartement;1988;1083DB
405;08-05-2018;['Yes'];52.38274294;https://www.pararius.nl/appartement-te-koop/amsterdam/PB0002374750/ijplein;Beschikbaar;4.91182786;Ijplein/Vogelbuurt;2;3;325000;IJplein;72;25722;Appartement;1984;1021LR
406;17-05-2018;['Yes', 'achtertuin'];52.35259651;https://www.pararius.nl/appartement-te-koop/amsterdam/PB0002381243/tolstraat;Beschikbaar;4.90475319;Diamantbuurt;2;5;665000;Tolstraat;105;337;Appartement;[];1074VJ
407;> 3 maanden;['No'];52.37695924;https://www.pararius.nl/opslagruimte-te-koop/amsterdam/PB0001044594/bogortuin;Beschikbaar;4.93591588;Oostelijk Havengebied;[];5;40000;Bogortuin;105;337;Opslagruimte;2000;1019PE
408;> 3 maanden;['Yes', 'ja'];52.30716959;https://www.pararius.nl/woonhuis-te-koop/amsterdam/PB0002367412/winterstraat;Verkocht onder voorbehoud;5.01611126;Driemond;3;4;250000;Winterstraat;74;315;Woonhuis;1964;1109BE
409;23-05-2018;['No'];52.36113898;https://www.pararius.nl/appartement-te-koop/amsterdam/PB0002385068/eerste-helmersstraat;Beschikbaar;4.86546303;Vondelbuurt;2;3;850000;Eerste Helmersstraat;117;434;Appartement;[];1054EK
410;> 3 maanden;['No'];52.35736139;https://www.pararius.nl/opslagruimte-te-koop/amsterdam/PB0002380632/langswater;Beschikbaar;4.78889545;De Punt;2;3;200000;Langswater;71;225;Opslagruimte;1966;1069EE
411;22-03-2018;['Yes', 'zonneterras'];52.37158005;https://www.pararius.nl/appartement-te-koop/amsterdam/PB0002337247/panamalaan;Verkocht onder voorbehoud;4.93472246;Oostelijk Havengebied;1;3;469000;Panamalaan;109;264;Appartement;2001;1019AZ
412;15-03-2018;['No'];52.38778333;https://www.pararius.nl/appartement-te-koop/amsterdam/PB0002331184/van-der-pekstraat;Verkocht onder voorbehoud;4.90917379;Volewijck;2;3;429000;Van der Pekstraat;82;246;Appartement;1919;1031EB
413;17-05-2018;['No'];52.36836155;https://www.pararius.nl/appartement-te-koop/amsterdam/PB0002382426/funenpark;Beschikbaar;4.92980712;Oostelijke Eilanden/Kadijken;2;3;485000;Funenpark;86;282;Appartement;2008;1018AK
414;16-05-2018;['No'];52.35571243;https://www.pararius.nl/appartement-te-koop/amsterdam/PB0002379102/iepenweg;Beschikbaar;4.91519998;Oosterparkbuurt;2;3;425000;Iepenweg;82;294;Appartement;1982;1091JL
415;18-05-2018;['Yes', 'achtertuin'];52.29300528;https://www.pararius.nl/woonhuis-te-koop/amsterdam/PB0002381653/twellostraat;Bieding;4.96782868;Holendrecht/Reigersbos;4;5;285000;Twellostraat;112;375;Woonhuis;1982;1107PH
416;06-05-2018;['Yes', 'achtertuin'];52.37637137;https://www.pararius.nl/appartement-te-koop/amsterdam/PB0002371612/van-oldenbarneveldtstraat;Verkocht onder voorbehoud;4.87534354;Frederik Hendrikbuurt;2;3;525000;Van Oldenbarneveldtstraat;80;280;Appartement;1886;1052JS
417;19-04-2018;['No'];52.37469357;https://www.pararius.nl/appartement-te-koop/amsterdam/PB0002373371/geuzenkade;Verkocht onder voorbehoud;4.86367354;De Krommert;2;3;300000;Geuzenkade;49;130;Appartement;1906;1056KP
418;30-03-2018;['No'];52.36857037;https://www.pararius.nl/appartement-te-koop/amsterdam/PB0002342460/plantage-doklaan;Beschikbaar;4.91208252;Weesperbuurt/Plantage;2;3;485000;Plantage Doklaan;87;271;Appartement;1989;1018CM
419;25-05-2018;['Yes', 'achtertuin'];52.35610002;https://www.pararius.nl/appartement-te-koop/amsterdam/PB0002387809/haarlemmermeerstraat;Beschikbaar;4.85009465;Hoofddorppleinbuurt;2;3;525000;Haarlemmermeerstraat;76;200;Appartement;1932;1058KC
420;24-05-2018;['Yes', 'achtertuin'];52.33430161;https://www.pararius.nl/appartement-te-koop/amsterdam/PB0002387126/crack-state;Beschikbaar;4.87786792;Buitenveldert-West;1;2;195000;Crack-State;34;90;Appartement;1964;1082TX
421;30-04-2018;['No'];52.37051387;https://www.pararius.nl/appartement-te-koop/amsterdam/PB0002365844/dirk-vreekenstraat;Verkocht onder voorbehoud;4.93559967;Oostelijk Havengebied;4;5;519000;Dirk Vreekenstraat;117;366;Appartement;1999;1019DP
422;20-03-2018;['No'];52.38645347;https://www.pararius.nl/appartement-te-koop/amsterdam/PB0002363094/prinseneiland;Verkocht onder voorbehoud;4.88747779;Haarlemmerbuurt;2;3;850000;Prinseneiland;135;465;Appartement;1905;1013LL
423;13-03-2018;['No'];52.35488937;https://www.pararius.nl/appartement-te-koop/amsterdam/PB0002319475/rengerskerkestraat;Beschikbaar;4.79330581;Osdorp-Midden;2;3;350000;Rengerskerkestraat;101;340;Appartement;2008;1069HV
424;30-04-2018;['No'];52.37737323;https://www.pararius.nl/appartement-te-koop/amsterdam/PB0002365816/hoofdweg;Beschikbaar;4.8459746;Westindische buurt;2;3;385000;Hoofdweg;82;214;Appartement;2009;1055SC
425;> 3 maanden;['No'];52.34739111;https://www.pararius.nl/woonhuis-te-koop/amsterdam/PB0002282266/raphaelplein;Beschikbaar;4.87033566;Apollobuurt;4;6;1750000;Raphaelplein;250;877;Woonhuis;1932;1077PX
426;05-04-2018;['No'];52.37747662;https://www.pararius.nl/appartement-te-koop/amsterdam/PB0002347347/willem-baerdesenstraat;Verkocht onder voorbehoud;4.80341302;Geuzenveld;[];3;262500;Willem Baerdesenstraat;83;248;Appartement;2004;1067XX
427;> 3 maanden;['No'];52.36784876;https://www.pararius.nl/appartement-te-koop/amsterdam/PB0002376948/derkinderenstraat;Beschikbaar;4.84065814;Overtoomse Veld;3;4;350000;Derkinderenstraat;87;248;Appartement;2008;1061VX
428;> 3 maanden;['No'];52.35653723;https://www.pararius.nl/appartement-te-koop/amsterdam/PB0000180740/langswater;Beschikbaar;4.78943501;De Punt;[];3;158000;Langswater;70;200;Appartement;1963;1069ED
429;> 3 maanden;['No'];52.35047139;https://www.pararius.nl/appartement-te-koop/amsterdam/PB0002373079/jan-van-zutphenstraat;Verkocht onder voorbehoud;4.80221249;Osdorp-Midden;2;3;295000;Jan van Zutphenstraat;70;215;Appartement;2007;1069RR
430;> 3 maanden;['No'];52.41185466;https://www.pararius.nl/woonhuis-te-koop/amsterdam/PB0002371028/castorplein;Verkocht onder voorbehoud;4.8901014;Tuindorp Oostzaan;3;4;275000;Castorplein;71;250;Woonhuis;[];1033GE
431;> 3 maanden;['No'];52.38637569;https://www.pararius.nl/appartement-te-koop/amsterdam/PB0002388666/spadinalaan;Beschikbaar;4.90043302;Buiksloterham;2;3;750000;Spadinalaan;92;228;Appartement;2010;1031KB
432;17-05-2018;['No'];52.3516768;https://www.pararius.nl/appartement-te-koop/amsterdam/PB0002380577/van-ostadestraat;Beschikbaar;4.88885279;Nieuwe Pijp;1;2;325000;Van Ostadestraat;45;145;Appartement;1901;1072TA
433;05-05-2018;['No'];52.39784837;https://www.pararius.nl/appartement-te-koop/amsterdam/PB0002371584/dollardpad;Verkocht onder voorbehoud;4.94353444;Buikslotermeer;2;3;325000;Dollardpad;87;275;Appartement;[];1025XG
434;> 3 maanden;['Yes', 'achtertuin. Lengte: 10,4. Breedte: 4,8. Orientatie: West'];52.29343106;https://www.pararius.nl/woonhuis-te-koop/amsterdam/PB0002252240/tolkamerstraat;Verkocht onder voorbehoud;4.96624158;Holendrecht/Reigersbos;3;4;229500;Tolkamerstraat;84;231;Woonhuis;1986;1107PC
435;20-04-2018;['No'];52.35798926;https://www.pararius.nl/appartement-te-koop/amsterdam/PB0002358931/tweede-oosterparkstraat;Beschikbaar;4.92047509;Oosterparkbuurt;2;3;399000;Tweede Oosterparkstraat;68;185;Appartement;1899;1092BT
436;19-04-2018;['No'];52.36533157;https://www.pararius.nl/appartement-te-koop/amsterdam/PB0002357642/kinkerstraat;Beschikbaar;4.86440066;Van Lennepbuurt;1;2;295000;Kinkerstraat;48;185;Appartement;[];1053GB
437;> 3 maanden;['No'];52.3643394;https://www.pararius.nl/overig-te-koop/amsterdam/PB0002329121/madurastraat;Beschikbaar;4.93326941;Indische Buurt West;[];3;239000;Madurastraat;55;143;Overig;1900;1094GE
438;> 3 maanden;['No'];52.3119063;https://www.pararius.nl/appartement-te-koop/amsterdam/PB0002170627/hofgeest;Beschikbaar;4.9577226;Bijlmer-Centrum (D, F, H);2;3;199000;Hofgeest;63;165;Appartement;1969;1102EC
439;29-03-2018;['No'];52.35541827;https://www.pararius.nl/appartement-te-koop/amsterdam/PB0002342205/maria-austriastraat;Verkocht onder voorbehoud;4.99734496;IJburg West;2;3;365000;Maria Austriastraat;93;281;Appartement;2004;1087GL
440;06-03-2018;['No'];52.3692207;https://www.pararius.nl/appartement-te-koop/amsterdam/PB0002315595/rapenburgerstraat;Beschikbaar;4.90841942;Nieuwmarkt/Lastage;2;3;650000;Rapenburgerstraat;86;277;Appartement;1964;1011VK
441;> 3 maanden;['No'];52.36400578;https://www.pararius.nl/appartement-te-koop/amsterdam/PB0002266176/mauritskade;Beschikbaar;4.92371514;Oosterparkbuurt;2;3;599000;Mauritskade;114;381;Appartement;2002;1093RP
442;> 3 maanden;['No'];52.37955322;https://www.pararius.nl/appartement-te-koop/amsterdam/PB0002228920/sumatrakade;Beschikbaar;4.92339111;Oostelijk Havengebied;1;3;350000;Sumatrakade;70;176;Appartement;1997;1019RS
443;16-03-2018;['No'];52.35895003;https://www.pararius.nl/appartement-te-koop/amsterdam/PB0002331771/paulus-potterstraat;Beschikbaar;4.880888;Museumkwartier;3;4;3300000;Paulus Potterstraat;242;883;Appartement;1903;1071DA
444;> 3 maanden;['No'];52.3250078;https://www.pararius.nl/appartement-te-koop/amsterdam/PB0002359795/bolestein;Beschikbaar;4.85931591;Buitenveldert-West;2;1;400000;Bolestein;90;883;Appartement;[];1081EK
445;> 3 maanden;['No'];52.35819328;https://www.pararius.nl/appartement-te-koop/amsterdam/PB0002253433/overtoom;Beschikbaar;4.85787891;Vondelbuurt;1;2;460000;Overtoom;70;249;Appartement;1915;1054LG
446;15-03-2018;['No'];52.38772923;https://www.pararius.nl/appartement-te-koop/amsterdam/PB0002331182/van-der-pekstraat;Verkocht onder voorbehoud;4.90913031;Volewijck;2;3;420000;Van der Pekstraat;78;234;Appartement;1919;1031EB
447;> 3 maanden;['Yes'];52.37402487;https://www.pararius.nl/appartement-te-koop/amsterdam/PB0002271563/troelstralaan;Beschikbaar;4.80112133;Geuzenveld;2;3;295000;Troelstralaan;94;275;Appartement;2015;1067MX
448;27-03-2018;['No'];52.35019607;https://www.pararius.nl/appartement-te-koop/amsterdam/PB0002373096/pieter-calandlaan;Verkocht onder voorbehoud;4.78849302;Osdorp-Oost;2;3;275000;Pieter Calandlaan;83;236;Appartement;1999;1060TX
